{
  "AAA": {
    "country": "Französisch-Polynesien",
    "latitude": -17.3526000977,
    "longitude": -145.5099945068
  },
  "AAB": {
    "country": "Australien",
    "latitude": -26.7000007629,
    "longitude": 141.0500030518
  },
  "AAC": {
    "country": "Ägypten",
    "latitude": 31.073299408,
    "longitude": 33.8358001709,
    "city": "El Arish"
  },
  "AAE": {
    "country": "Algerien",
    "latitude": 36.8222007751,
    "longitude": 7.8091697693,
    "city": "Annabah"
  },
  "AAF": {
    "country": "USA",
    "latitude": 29.72750092,
    "longitude": -85.02749634,
    "city": "Apalachicola"
  },
  "AAG": {
    "country": "Brasilien",
    "latitude": -24.1039009094,
    "longitude": -49.789100647,
    "city": "Arapoti"
  },
  "AAH": {
    "country": "Deutschland",
    "latitude": 50.8230552673,
    "longitude": 6.1863889694,
    "city": "Aachen"
  },
  "AAI": {
    "country": "Brasilien",
    "latitude": -13.023888588,
    "longitude": -46.8855552673,
    "city": "Arraias"
  },
  "AAJ": {
    "country": "Surinam",
    "latitude": 3.898681,
    "longitude": -55.577907,
    "city": "Awaradam"
  },
  "AAK": {
    "country": "Kiribati",
    "latitude": 0.1852779984,
    "longitude": 173.6369934082,
    "city": "Buariki"
  },
  "AAL": {
    "country": "Dänemark",
    "latitude": 57.0927589138,
    "longitude": 9.8492431641,
    "city": "Aalborg"
  },
  "AAM": {
    "country": "Südafrika",
    "latitude": -24.8180999756,
    "longitude": 31.5445995331,
    "city": "Malamala"
  },
  "AAN": {
    "country": "Vereinigte Arabische Emirate",
    "latitude": 24.2616996765,
    "longitude": 55.6091995239,
    "city": "Al Ain"
  },
  "AAO": {
    "country": "Venezuela",
    "latitude": 9.4302253723,
    "longitude": -64.4707260132,
    "city": "Anaco"
  },
  "AAP": {
    "country": "Indonesien",
    "latitude": -0.373611,
    "longitude": 117.255556,
    "city": "Samarinda"
  },
  "AAQ": {
    "country": "Russland",
    "latitude": 45.0021018982,
    "longitude": 37.3473014832,
    "city": "Anapa"
  },
  "AAR": {
    "country": "Dänemark",
    "latitude": 56.2999992371,
    "longitude": 10.6190004349,
    "city": "Aarhus"
  },
  "AAT": {
    "country": "China",
    "latitude": 47.7498855591,
    "longitude": 88.0858078003,
    "city": "Altay"
  },
  "AAU": {
    "country": "Samoa",
    "latitude": -13.5058002472,
    "longitude": -172.628005981,
    "city": "Asau"
  },
  "AAV": {
    "country": "Philippinen",
    "latitude": 6.3668198586,
    "longitude": 124.7509994507,
    "city": "Surallah"
  },
  "AAX": {
    "country": "Brasilien",
    "latitude": -19.5631999969,
    "longitude": -46.9603996277,
    "city": "Araxa"
  },
  "AAY": {
    "country": "Jemen",
    "latitude": 16.1916999817,
    "longitude": 52.1749992371
  },
  "AAZ": {
    "country": "Guatemala",
    "latitude": 14.8655996323,
    "longitude": -91.5019989014,
    "city": "Quetzaltenango"
  },
  "ABA": {
    "country": "Russland",
    "latitude": 53.7400016785,
    "longitude": 91.3850021362,
    "city": "Abakan"
  },
  "ABB": {
    "country": "Nigeria",
    "latitude": 6.2033333333,
    "longitude": 6.6588888889,
    "city": "Asaba"
  },
  "ABC": {
    "country": "Spanien",
    "latitude": 38.9485015869,
    "longitude": -1.8635200262,
    "city": "Albacete"
  },
  "ABD": {
    "country": "Iran",
    "latitude": 30.371099472,
    "longitude": 48.2282981873,
    "city": "Abadan"
  },
  "ABE": {
    "country": "USA",
    "latitude": 40.6520996094,
    "longitude": -75.4408035278,
    "city": "Allentown"
  },
  "ABF": {
    "country": "Kiribati",
    "latitude": 1.798609972,
    "longitude": 173.0410003662,
    "city": "Abaiang"
  },
  "ABG": {
    "country": "Australien",
    "latitude": -17.6166992188,
    "longitude": 143.167007446
  },
  "ABH": {
    "country": "Australien",
    "latitude": -23.6460990906,
    "longitude": 146.5839996338
  },
  "ABI": {
    "country": "USA",
    "latitude": 32.4113006592,
    "longitude": -99.6819000244,
    "city": "Abilene"
  },
  "ABJ": {
    "country": "Elfenbeinküste",
    "latitude": 5.2613902092,
    "longitude": -3.9262900352,
    "city": "Abidjan"
  },
  "ABK": {
    "country": "Äthiopien",
    "latitude": 6.734000206,
    "longitude": 44.2529983521,
    "city": "Kabri Dehar"
  },
  "ABL": {
    "country": "USA",
    "latitude": 67.106300354,
    "longitude": -157.856994629,
    "city": "Ambler"
  },
  "ABM": {
    "country": "Australien",
    "latitude": -10.950799942,
    "longitude": 142.4589996338
  },
  "ABN": {
    "country": "Surinam",
    "latitude": 5.512720108,
    "longitude": -54.0500984192,
    "city": "Albina"
  },
  "ABQ": {
    "country": "USA",
    "latitude": 35.0401992798,
    "longitude": -106.6090011597,
    "city": "Albuquerque"
  },
  "ABR": {
    "country": "USA",
    "latitude": 45.4491004944,
    "longitude": -98.4217987061,
    "city": "Aberdeen"
  },
  "ABS": {
    "country": "Ägypten",
    "latitude": 22.3759994507,
    "longitude": 31.611700058,
    "city": "Abu Simbel"
  },
  "ABT": {
    "country": "Saudi Arabien",
    "latitude": 20.2961006165,
    "longitude": 41.6343002319
  },
  "ABU": {
    "country": "Indonesien",
    "latitude": -9.0730495453,
    "longitude": 124.9049987793,
    "city": "Atambua-Timor Island"
  },
  "ABV": {
    "country": "Nigeria",
    "latitude": 9.0067901611,
    "longitude": 7.2631697655,
    "city": "Abuja"
  },
  "ABX": {
    "country": "Australien",
    "latitude": -36.0677986145,
    "longitude": 146.9579925537,
    "city": "Albury"
  },
  "ABY": {
    "country": "USA",
    "latitude": 31.5354995728,
    "longitude": -84.1945037842,
    "city": "Albany"
  },
  "ABZ": {
    "country": "Vereinigtes Königreich",
    "latitude": 57.2019004822,
    "longitude": -2.1977798939,
    "city": "Aberdeen"
  },
  "ACA": {
    "country": "Mexiko",
    "latitude": 16.7570991516,
    "longitude": -99.7539978027,
    "city": "Acapulco"
  },
  "ACB": {
    "country": "USA",
    "latitude": 44.9886016846,
    "longitude": -85.1984024048,
    "city": "Bellaire"
  },
  "ACC": {
    "country": "Ghana",
    "latitude": 5.6051898003,
    "longitude": -0.1667860001,
    "city": "Accra"
  },
  "ACD": {
    "country": "Kolumbien",
    "latitude": 8.51667,
    "longitude": -77.3,
    "city": "Acandi"
  },
  "ACE": {
    "country": "Spanien",
    "latitude": 28.9454994202,
    "longitude": -13.6051998138,
    "city": "Lanzarote Island"
  },
  "ACH": {
    "country": "Schweiz",
    "latitude": 47.4850006104,
    "longitude": 9.5607700348,
    "city": "Altenrhein"
  },
  "ACI": {
    "country": "Guernsey",
    "latitude": 49.7061004639,
    "longitude": -2.2147200108,
    "city": "Saint Anne"
  },
  "ACJ": {
    "country": "Sri Lanka",
    "latitude": 8.30148983,
    "longitude": 80.4279022217,
    "city": "Anuradhapura"
  },
  "ACK": {
    "country": "USA",
    "latitude": 41.25310135,
    "longitude": -70.06020355,
    "city": "Nantucket"
  },
  "ACN": {
    "country": "Mexiko",
    "latitude": 29.3328990936,
    "longitude": -101.0989990234,
    "city": "Ciudad Acuna"
  },
  "ACP": {
    "country": "Iran",
    "latitude": 37.3479995728,
    "longitude": 46.1278991699,
    "city": "Maragheh"
  },
  "ACR": {
    "country": "Kolumbien",
    "latitude": -0.5833,
    "longitude": -72.4083,
    "city": "Araracuara"
  },
  "ACS": {
    "country": "Russland",
    "latitude": 56.2682991028,
    "longitude": 90.5708007813,
    "city": "Achinsk"
  },
  "ACT": {
    "country": "USA",
    "latitude": 31.6112995148,
    "longitude": -97.2304992676,
    "city": "Waco"
  },
  "ACV": {
    "country": "USA",
    "latitude": 40.978099823,
    "longitude": -124.1090011597,
    "city": "Arcata/Eureka"
  },
  "ACX": {
    "country": "China",
    "latitude": 25.0863888889,
    "longitude": 104.959444444,
    "city": "Xingyi"
  },
  "ACY": {
    "country": "USA",
    "latitude": 39.4575996399,
    "longitude": -74.5772018433,
    "city": "Atlantic City"
  },
  "ACZ": {
    "country": "Iran",
    "latitude": 31.0983009338,
    "longitude": 61.5438995361
  },
  "ADA": {
    "country": "Türkei",
    "latitude": 36.9822006226,
    "longitude": 35.2803993225,
    "city": "Adana"
  },
  "ADB": {
    "country": "Türkei",
    "latitude": 38.2924003601,
    "longitude": 27.156999588,
    "city": "Izmir"
  },
  "ADC": {
    "country": "Papua-Neuguinea",
    "latitude": -7.1372222222,
    "longitude": 145.744722222,
    "city": "Andekombe"
  },
  "ADD": {
    "country": "Äthiopien",
    "latitude": 8.9778900147,
    "longitude": 38.7993011475,
    "city": "Addis Ababa"
  },
  "ADE": {
    "country": "Jemen",
    "latitude": 12.8295001984,
    "longitude": 45.0288009644,
    "city": "Aden"
  },
  "ADF": {
    "country": "Türkei",
    "latitude": 37.7313995361,
    "longitude": 38.4688987732,
    "city": "Adiyaman"
  },
  "ADG": {
    "country": "USA",
    "latitude": 41.8676986694,
    "longitude": -84.0773010254,
    "city": "Adrian"
  },
  "ADH": {
    "country": "Russland",
    "latitude": 58.6027984619,
    "longitude": 125.408996582,
    "city": "Aldan"
  },
  "ADI": {
    "country": "Namibia",
    "latitude": -22.4622001648,
    "longitude": 14.9799995422,
    "city": "Arandis"
  },
  "ADJ": {
    "country": "Jordanien",
    "latitude": 31.972700119,
    "longitude": 35.9916000366,
    "city": "Amman"
  },
  "ADK": {
    "country": "USA",
    "latitude": 51.8779983521,
    "longitude": -176.6459960938,
    "city": "Adak Island"
  },
  "ADL": {
    "country": "Australien",
    "latitude": -34.9449996948,
    "longitude": 138.5310058594,
    "city": "Adelaide"
  },
  "ADM": {
    "country": "USA",
    "latitude": 34.30301,
    "longitude": -97.0196342,
    "city": "Ardmore"
  },
  "ADN": {
    "country": "Kolumbien",
    "latitude": 5.66667,
    "longitude": -75.8833,
    "city": "Andes"
  },
  "ADO": {
    "country": "Australien",
    "latitude": -30.4382991791,
    "longitude": 137.1369934082
  },
  "ADQ": {
    "country": "USA",
    "latitude": 57.75,
    "longitude": -152.4940033,
    "city": "Kodiak"
  },
  "ADR": {
    "country": "USA",
    "latitude": 33.4516983032,
    "longitude": -79.5261993408,
    "city": "Andrews"
  },
  "ADS": {
    "country": "USA",
    "latitude": 32.9686012268,
    "longitude": -96.8364028931,
    "city": "Dallas"
  },
  "ADT": {
    "country": "USA",
    "latitude": 34.8042984009,
    "longitude": -96.6713027954,
    "city": "Ada"
  },
  "ADU": {
    "country": "Iran",
    "latitude": 38.3256988525,
    "longitude": 48.4244003296,
    "city": "Ardabil"
  },
  "ADW": {
    "country": "USA",
    "latitude": 38.810798645,
    "longitude": -76.8669967651,
    "city": "Camp Springs"
  },
  "ADX": {
    "country": "Vereinigtes Königreich",
    "latitude": 56.3728981018,
    "longitude": -2.8684399128,
    "city": "St. Andrews"
  },
  "ADY": {
    "country": "Südafrika",
    "latitude": -22.6790008545,
    "longitude": 29.0555000305,
    "city": "Alldays"
  },
  "ADZ": {
    "country": "Kolumbien",
    "latitude": 12.5836,
    "longitude": -81.7112,
    "city": "San Andres"
  },
  "AEA": {
    "country": "Kiribati",
    "latitude": 0.4908330142,
    "longitude": 173.828994751,
    "city": "Abemama Atoll"
  },
  "AEB": {
    "country": "China",
    "latitude": 23.7206001282,
    "longitude": 106.959999084,
    "city": "Baise"
  },
  "AEG": {
    "country": "Indonesien",
    "latitude": 1.4000999928,
    "longitude": 99.4304962158,
    "city": "Padang Sidempuan-Sumatra Island"
  },
  "AEH": {
    "country": "Tschad",
    "latitude": 13.8470001221,
    "longitude": 20.8442993164
  },
  "AEL": {
    "country": "USA",
    "latitude": 43.68149948,
    "longitude": -93.36720276,
    "city": "Albert Lea"
  },
  "AEO": {
    "country": "Mauretanien",
    "latitude": 16.7112998962,
    "longitude": -9.6378803253,
    "city": "Aioun El Atrouss"
  },
  "AEP": {
    "country": "Argentinien",
    "latitude": -34.5592,
    "longitude": -58.4156,
    "city": "Buenos Aires"
  },
  "AER": {
    "country": "Russland",
    "latitude": 43.4499015808,
    "longitude": 39.9566001892,
    "city": "Sochi"
  },
  "AES": {
    "country": "Norwegen",
    "latitude": 62.5625,
    "longitude": 6.119699955,
    "city": "Alesund"
  },
  "AET": {
    "country": "USA",
    "latitude": 66.5518035889,
    "longitude": -152.621994019,
    "city": "Allakaket"
  },
  "AEU": {
    "country": "Iran",
    "latitude": 25.8756999969,
    "longitude": 55.033000946
  },
  "AEX": {
    "country": "USA",
    "latitude": 31.3274002075,
    "longitude": -92.5497970581,
    "city": "Alexandria"
  },
  "AEY": {
    "country": "Island",
    "latitude": 65.6600036621,
    "longitude": -18.0727005005,
    "city": "Akureyri"
  },
  "AFA": {
    "country": "Argentinien",
    "latitude": -34.5882987976,
    "longitude": -68.4039001465,
    "city": "San Rafael"
  },
  "AFD": {
    "country": "Südafrika",
    "latitude": -33.5541992188,
    "longitude": 26.8777008057,
    "city": "Port Alfred"
  },
  "AFF": {
    "country": "USA",
    "latitude": 38.96969986,
    "longitude": -104.8130035,
    "city": "Colorado Springs"
  },
  "AFI": {
    "country": "Kolumbien",
    "latitude": 6.91667,
    "longitude": -75.0667,
    "city": "Amalfi"
  },
  "AFL": {
    "country": "Brasilien",
    "latitude": -9.8663892746,
    "longitude": -56.1049995422,
    "city": "Alta Floresta"
  },
  "AFN": {
    "country": "USA",
    "latitude": 42.8050994873,
    "longitude": -72.0029983521,
    "city": "Jaffrey"
  },
  "AFO": {
    "country": "USA",
    "latitude": 42.7112007141,
    "longitude": -110.942001343,
    "city": "Afton"
  },
  "AFS": {
    "country": "Usbekistan",
    "latitude": 41.613899231,
    "longitude": 64.2332000732,
    "city": "Zarafshan"
  },
  "AFT": {
    "country": "Salomonen",
    "latitude": -9.1913888889,
    "longitude": 160.948611111,
    "city": "Bila"
  },
  "AFW": {
    "country": "USA",
    "latitude": 32.9875984192,
    "longitude": -97.3188018799,
    "city": "Fort Worth"
  },
  "AFY": {
    "country": "Türkei",
    "latitude": 38.726398468,
    "longitude": 30.6011009216,
    "city": "Afyonkarahisar"
  },
  "AFZ": {
    "country": "Iran",
    "latitude": 36.1680984497,
    "longitude": 57.595199585,
    "city": "Sabzevar"
  },
  "AGA": {
    "country": "Marokko",
    "latitude": 30.3250007629,
    "longitude": -9.413069725,
    "city": "Agadir"
  },
  "AGB": {
    "country": "Deutschland",
    "latitude": 48.42527771,
    "longitude": 10.9316673279,
    "city": "Augsburg"
  },
  "AGC": {
    "country": "USA",
    "latitude": 40.3544006348,
    "longitude": -79.9301986694,
    "city": "Pittsburgh"
  },
  "AGE": {
    "country": "Deutschland",
    "latitude": 53.7827796936,
    "longitude": 7.9138889313,
    "city": "Wangerooge"
  },
  "AGF": {
    "country": "Frankreich",
    "latitude": 44.1747016907,
    "longitude": 0.5905560255,
    "city": "Agen/La Garenne"
  },
  "AGH": {
    "country": "Schweden",
    "latitude": 56.2961006165,
    "longitude": 12.8471002579,
    "city": "Angelholm"
  },
  "AGI": {
    "country": "Surinam",
    "latitude": 5.7666668892,
    "longitude": -56.6333312988,
    "city": "Wageningen Airport"
  },
  "AGJ": {
    "country": "Japan",
    "latitude": 26.5925006866,
    "longitude": 127.2409973145,
    "city": "Aguni"
  },
  "AGL": {
    "country": "Papua-Neuguinea",
    "latitude": -9.3375,
    "longitude": 149.155555556
  },
  "AGO": {
    "country": "USA",
    "latitude": 33.22800064,
    "longitude": -93.21700287,
    "city": "Magnolia"
  },
  "AGP": {
    "country": "Spanien",
    "latitude": 36.6749000549,
    "longitude": -4.4991102219,
    "city": "Malaga"
  },
  "AGQ": {
    "country": "Griechenland",
    "latitude": 38.6020011902,
    "longitude": 21.3512001038,
    "city": "Agrinion"
  },
  "AGR": {
    "country": "Indien",
    "latitude": 27.1557998657,
    "longitude": 77.960899353
  },
  "AGS": {
    "country": "USA",
    "latitude": 33.3698997498,
    "longitude": -81.9645004272,
    "city": "Augusta"
  },
  "AGT": {
    "country": "Paraguay",
    "latitude": -25.4599990845,
    "longitude": -54.8400001526,
    "city": "Ciudad del Este"
  },
  "AGU": {
    "country": "Mexiko",
    "latitude": 21.7056007385,
    "longitude": -102.318000793,
    "city": "Aguascalientes"
  },
  "AGV": {
    "country": "Venezuela",
    "latitude": 9.5533752441,
    "longitude": -69.2378692627,
    "city": "Acarigua"
  },
  "AGX": {
    "country": "Indien",
    "latitude": 10.8236999512,
    "longitude": 72.1760025024
  },
  "AGZ": {
    "country": "Südafrika",
    "latitude": -29.2817993164,
    "longitude": 18.8138999939,
    "city": "Aggeneys"
  },
  "AHB": {
    "country": "Saudi Arabien",
    "latitude": 18.2404003143,
    "longitude": 42.6566009521,
    "city": "Abha"
  },
  "AHC": {
    "country": "USA",
    "latitude": 40.26620102,
    "longitude": -120.1529999,
    "city": "Herlong"
  },
  "AHE": {
    "country": "Französisch-Polynesien",
    "latitude": -14.4280996323,
    "longitude": -146.2570037842,
    "city": "Ahe Atoll"
  },
  "AHH": {
    "country": "USA",
    "latitude": 45.2811012268,
    "longitude": -92.3753967285,
    "city": "Amery"
  },
  "AHI": {
    "country": "Indonesien",
    "latitude": -3.3480000496,
    "longitude": 128.925994873,
    "city": "Amahai-Seram Island"
  },
  "AHL": {
    "country": "Guyana",
    "latitude": 2.4865300655,
    "longitude": -59.3134002686,
    "city": "Aishalton"
  },
  "AHM": {
    "country": "USA",
    "latitude": 42.1902999878,
    "longitude": -122.661003113,
    "city": "Ashland"
  },
  "AHN": {
    "country": "USA",
    "latitude": 33.948600769,
    "longitude": -83.3263015747,
    "city": "Athens"
  },
  "AHO": {
    "country": "Italien",
    "latitude": 40.6320991516,
    "longitude": 8.290769577,
    "city": "Alghero"
  },
  "AHS": {
    "country": "Honduras",
    "latitude": 15.4722003937,
    "longitude": -84.3522033691,
    "city": "Ahuas"
  },
  "AHU": {
    "country": "Marokko",
    "latitude": 35.1771011353,
    "longitude": -3.8395199776,
    "city": "Al Hoceima"
  },
  "AHZ": {
    "country": "Frankreich",
    "latitude": 45.0882987976,
    "longitude": 6.0847201347,
    "city": "Bourg"
  },
  "AIA": {
    "country": "USA",
    "latitude": 42.0531997681,
    "longitude": -102.804000854,
    "city": "Alliance"
  },
  "AID": {
    "country": "USA",
    "latitude": 40.1086006165,
    "longitude": -85.6129989624,
    "city": "Anderson"
  },
  "AIE": {
    "country": "Papua-Neuguinea",
    "latitude": -5.145699978,
    "longitude": 144.7307003,
    "city": "Aiome"
  },
  "AIF": {
    "country": "Brasilien",
    "latitude": -22.64,
    "longitude": -50.453056,
    "city": "Assis"
  },
  "AIG": {
    "country": "Zentralafrikanische Republik",
    "latitude": 6.5199999809,
    "longitude": 23.2600002289,
    "city": "Yalinga"
  },
  "AII": {
    "country": "Dschibuti",
    "latitude": 11.1468888889,
    "longitude": 42.72,
    "city": "Ali-Sabieh"
  },
  "AIK": {
    "country": "USA",
    "latitude": 33.6493988037,
    "longitude": -81.6849975586,
    "city": "Aiken"
  },
  "AIN": {
    "country": "USA",
    "latitude": 70.6380004883,
    "longitude": -159.994995117,
    "city": "Wainwright"
  },
  "AIO": {
    "country": "USA",
    "latitude": 41.40729904,
    "longitude": -95.04689789,
    "city": "Atlantic"
  },
  "AIP": {
    "country": "Indien",
    "latitude": 31.4337997437,
    "longitude": 75.7587966919
  },
  "AIR": {
    "country": "Brasilien",
    "latitude": -10.2502775192,
    "longitude": -59.3838882446,
    "city": "Aripuana"
  },
  "AIS": {
    "country": "Kiribati",
    "latitude": -2.6161100864,
    "longitude": 176.8029937744,
    "city": "Arorae Island"
  },
  "AIT": {
    "country": "Cookinseln",
    "latitude": -18.8309001923,
    "longitude": -159.7640075684,
    "city": "Aitutaki"
  },
  "AIU": {
    "country": "Cookinseln",
    "latitude": -19.9678001404,
    "longitude": -158.1190032959,
    "city": "Atiu Island"
  },
  "AIV": {
    "country": "USA",
    "latitude": 33.1064987183,
    "longitude": -88.1977996826,
    "city": "Aliceville"
  },
  "AIZ": {
    "country": "USA",
    "latitude": 38.0960006714,
    "longitude": -92.5494995117,
    "city": "Kaiser Lake Ozark"
  },
  "AJA": {
    "country": "Frankreich",
    "latitude": 41.9235992432,
    "longitude": 8.8029203415,
    "city": "Ajaccio/Napoleon Bonaparte"
  },
  "AJF": {
    "country": "Saudi Arabien",
    "latitude": 29.7851009369,
    "longitude": 40.0999984741,
    "city": "Al-Jawf"
  },
  "AJI": {
    "country": "Türkei",
    "latitude": 39.6545410156,
    "longitude": 43.0259780884,
    "city": "Agri"
  },
  "AJJ": {
    "country": "Mauretanien",
    "latitude": 19.7330169678,
    "longitude": -14.3832492828,
    "city": "Akjoujt"
  },
  "AJK": {
    "country": "Iran",
    "latitude": 34.1380996704,
    "longitude": 49.8473014832,
    "city": "Araak"
  },
  "AJL": {
    "country": "Indien",
    "latitude": 23.8405990601,
    "longitude": 92.6196975708,
    "city": "Aizawl"
  },
  "AJN": {
    "country": "Komoren",
    "latitude": -12.1316995621,
    "longitude": 44.4303016663,
    "city": "Ouani"
  },
  "AJR": {
    "country": "Schweden",
    "latitude": 65.5903015137,
    "longitude": 19.2819004059,
    "city": "Arvidsjaur"
  },
  "AJU": {
    "country": "Brasilien",
    "latitude": -10.984000206,
    "longitude": -37.0703010559,
    "city": "Aracaju"
  },
  "AJY": {
    "country": "Niger",
    "latitude": 16.9659996033,
    "longitude": 8.0001096725,
    "city": "Agadez"
  },
  "AKA": {
    "country": "China",
    "latitude": 32.7080993652,
    "longitude": 108.9309997559,
    "city": "Ankang"
  },
  "AKB": {
    "country": "USA",
    "latitude": 52.22029877,
    "longitude": -174.2059937,
    "city": "Atka"
  },
  "AKC": {
    "country": "USA",
    "latitude": 41.0374984741,
    "longitude": -81.4669036865,
    "city": "Akron"
  },
  "AKD": {
    "country": "Indien",
    "latitude": 20.6989994049,
    "longitude": 77.0586013794
  },
  "AKF": {
    "country": "Libyen",
    "latitude": 24.1786994934,
    "longitude": 23.313999176,
    "city": "Kufra"
  },
  "AKH": {
    "country": "Saudi Arabien",
    "latitude": 24.0627002716,
    "longitude": 47.5805015564
  },
  "AKI": {
    "country": "USA",
    "latitude": 60.9029006958,
    "longitude": -161.231002808,
    "city": "Akiak"
  },
  "AKJ": {
    "country": "Japan",
    "latitude": 43.6707992554,
    "longitude": 142.4470062256,
    "city": "Asahikawa"
  },
  "AKK": {
    "country": "USA",
    "latitude": 56.9387016296,
    "longitude": -154.182998657,
    "city": "Akhiok"
  },
  "AKL": {
    "country": "Neuseeland",
    "latitude": -37.0080986023,
    "longitude": 174.7920074463,
    "city": "Auckland"
  },
  "AKN": {
    "country": "USA",
    "latitude": 58.67679977,
    "longitude": -156.6490021,
    "city": "King Salmon"
  },
  "AKO": {
    "country": "USA",
    "latitude": 40.1755981445,
    "longitude": -103.222000122,
    "city": "Akron"
  },
  "AKP": {
    "country": "USA",
    "latitude": 68.13359833,
    "longitude": -151.7429962,
    "city": "Anaktuvuk Pass"
  },
  "AKQ": {
    "country": "Indonesien",
    "latitude": -4.4894399643,
    "longitude": 105.2170028687,
    "city": "Menggala-Sumatra Island"
  },
  "AKR": {
    "country": "Nigeria",
    "latitude": 7.2467398643,
    "longitude": 5.3010101318,
    "city": "Akure"
  },
  "AKS": {
    "country": "Salomonen",
    "latitude": -8.7025699616,
    "longitude": 160.682006836,
    "city": "Auki"
  },
  "AKT": {
    "country": "Zypern",
    "latitude": 34.5904006958,
    "longitude": 32.9878997803
  },
  "AKU": {
    "country": "China",
    "latitude": 41.2625007629,
    "longitude": 80.2917022705,
    "city": "Aksu"
  },
  "AKV": {
    "country": "Kanada",
    "latitude": 60.8185997009,
    "longitude": -78.1485977173,
    "city": "Akulivik"
  },
  "AKW": {
    "country": "USA",
    "latitude": 55.5792007446,
    "longitude": -133.0760040283,
    "city": "Klawock"
  },
  "AKX": {
    "country": "Kasachstan",
    "latitude": 50.2458000183,
    "longitude": 57.2066993713,
    "city": "Aktyubinsk"
  },
  "AKY": {
    "country": "Myanmar",
    "latitude": 20.1326999664,
    "longitude": 92.8725967407,
    "city": "Sittwe"
  },
  "ALA": {
    "country": "Kasachstan",
    "latitude": 43.3521003723,
    "longitude": 77.0404968262,
    "city": "Almaty"
  },
  "ALB": {
    "country": "USA",
    "latitude": 42.748298645,
    "longitude": -73.8016967773,
    "city": "Albany"
  },
  "ALC": {
    "country": "Spanien",
    "latitude": 38.2821998596,
    "longitude": -0.5581560135,
    "city": "Alicante"
  },
  "ALD": {
    "country": "Peru",
    "latitude": -11.6829996109,
    "longitude": -69.3330001831,
    "city": "Fortaleza"
  },
  "ALF": {
    "country": "Norwegen",
    "latitude": 69.9760971069,
    "longitude": 23.3717002869,
    "city": "Alta"
  },
  "ALG": {
    "country": "Algerien",
    "latitude": 36.6910018921,
    "longitude": 3.2154099941,
    "city": "Algiers"
  },
  "ALH": {
    "country": "Australien",
    "latitude": -34.9432983398,
    "longitude": 117.8089981079,
    "city": "Albany"
  },
  "ALI": {
    "country": "USA",
    "latitude": 27.7409000397,
    "longitude": -98.0269012451,
    "city": "Alice"
  },
  "ALJ": {
    "country": "Südafrika",
    "latitude": -28.5750007629,
    "longitude": 16.5333003998,
    "city": "Alexander Bay"
  },
  "ALL": {
    "country": "Italien",
    "latitude": 44.0505981445,
    "longitude": 8.1274299622,
    "city": "Albenga"
  },
  "ALM": {
    "country": "USA",
    "latitude": 32.8399009705,
    "longitude": -105.9909973145,
    "city": "Alamogordo"
  },
  "ALN": {
    "country": "USA",
    "latitude": 38.8903007507,
    "longitude": -90.0459976196,
    "city": "Alton/St Louis"
  },
  "ALO": {
    "country": "USA",
    "latitude": 42.5570983887,
    "longitude": -92.4002990723,
    "city": "Waterloo"
  },
  "ALP": {
    "country": "Syrien",
    "latitude": 36.1806983948,
    "longitude": 37.2243995667,
    "city": "Aleppo"
  },
  "ALQ": {
    "country": "Brasilien",
    "latitude": -29.8127002716,
    "longitude": -55.8933982849,
    "city": "Alegrete"
  },
  "ALR": {
    "country": "Neuseeland",
    "latitude": -45.2117004395,
    "longitude": 169.3730010986,
    "city": "Alexandra"
  },
  "ALS": {
    "country": "USA",
    "latitude": 37.4348983765,
    "longitude": -105.866996765,
    "city": "Alamosa"
  },
  "ALU": {
    "country": "Somalia",
    "latitude": 11.9582,
    "longitude": 50.748,
    "city": "Alula"
  },
  "ALW": {
    "country": "USA",
    "latitude": 46.09489822,
    "longitude": -118.288002,
    "city": "Walla Walla"
  },
  "ALX": {
    "country": "USA",
    "latitude": 32.9146995544,
    "longitude": -85.9629974365,
    "city": "Alexander City"
  },
  "ALY": {
    "country": "Ägypten",
    "latitude": 31.1839008331,
    "longitude": 29.9489002228,
    "city": "Alexandria"
  },
  "AMA": {
    "country": "USA",
    "latitude": 35.2193984985,
    "longitude": -101.7060012817,
    "city": "Amarillo"
  },
  "AMB": {
    "country": "Madagaskar",
    "latitude": -13.1884002686,
    "longitude": 48.9879989624
  },
  "AMC": {
    "country": "Tschad",
    "latitude": 11.0340003967,
    "longitude": 20.2740001678,
    "city": "Am Timan"
  },
  "AMD": {
    "country": "Indien",
    "latitude": 23.0771999359,
    "longitude": 72.6346969604,
    "city": "Ahmedabad"
  },
  "AMH": {
    "country": "Äthiopien",
    "latitude": 6.0393900871,
    "longitude": 37.5904998779
  },
  "AMI": {
    "country": "Indonesien",
    "latitude": -8.5607099533,
    "longitude": 116.095001221,
    "city": "Mataram-Lombok Island"
  },
  "AMJ": {
    "country": "Brasilien",
    "latitude": -16.18389,
    "longitude": -40.66722,
    "city": "Almenara"
  },
  "AMK": {
    "country": "USA",
    "latitude": 37.2032012939,
    "longitude": -107.869003296,
    "city": "Durango"
  },
  "AMM": {
    "country": "Jordanien",
    "latitude": 31.7226009369,
    "longitude": 35.9931983948,
    "city": "Amman"
  },
  "AMN": {
    "country": "USA",
    "latitude": 43.322101593,
    "longitude": -84.68800354,
    "city": "Alma"
  },
  "AMO": {
    "country": "Tschad",
    "latitude": 14.1456003189,
    "longitude": 15.3143997192,
    "city": "Mao"
  },
  "AMP": {
    "country": "Madagaskar",
    "latitude": -24.6996994019,
    "longitude": 44.7341995239,
    "city": "Ampanihy"
  },
  "AMQ": {
    "country": "Indonesien",
    "latitude": -3.7102599144,
    "longitude": 128.0890045166,
    "city": "Ambon"
  },
  "AMS": {
    "country": "Niederlande",
    "latitude": 52.3086013794,
    "longitude": 4.7638897896,
    "city": "Amsterdam"
  },
  "AMT": {
    "country": "Australien",
    "latitude": -26.1082992554,
    "longitude": 131.2070007324
  },
  "AMU": {
    "country": "Papua-Neuguinea",
    "latitude": -3.586,
    "longitude": 141.214333333,
    "city": "Amanab"
  },
  "AMV": {
    "country": "Russland",
    "latitude": 69.7632980347,
    "longitude": 61.5564002991,
    "city": "Amderma"
  },
  "AMW": {
    "country": "USA",
    "latitude": 41.99200058,
    "longitude": -93.62180328,
    "city": "Ames"
  },
  "AMX": {
    "country": "Australien",
    "latitude": -21.7383003235,
    "longitude": 135.2420043945
  },
  "AMZ": {
    "country": "Neuseeland",
    "latitude": -37.0297012329,
    "longitude": 174.9730072021,
    "city": "Manurewa"
  },
  "ANB": {
    "country": "USA",
    "latitude": 33.58819962,
    "longitude": -85.85810089,
    "city": "Anniston"
  },
  "ANC": {
    "country": "USA",
    "latitude": 61.1744003296,
    "longitude": -149.9960021973,
    "city": "Anchorage"
  },
  "AND": {
    "country": "USA",
    "latitude": 34.4945983887,
    "longitude": -82.7093963623,
    "city": "Anderson"
  },
  "ANE": {
    "country": "Frankreich",
    "latitude": 47.5602989197,
    "longitude": -0.3122220039,
    "city": "Angers/Marce"
  },
  "ANF": {
    "country": "Chile",
    "latitude": -23.4444999695,
    "longitude": -70.445098877,
    "city": "Antofagasta"
  },
  "ANG": {
    "country": "Frankreich",
    "latitude": 45.7291984558,
    "longitude": 0.2214560062,
    "city": "Angouleme/Brie/Champniers"
  },
  "ANI": {
    "country": "USA",
    "latitude": 61.5816001892,
    "longitude": -159.5429992676,
    "city": "Aniak"
  },
  "ANJ": {
    "country": "Demokratische Republik Kongo",
    "latitude": -2.8499999046,
    "longitude": 13.8170003891,
    "city": "Zanaga"
  },
  "ANK": {
    "country": "Türkei",
    "latitude": 39.949798584,
    "longitude": 32.6885986328,
    "city": "Ankara"
  },
  "ANM": {
    "country": "Madagaskar",
    "latitude": -14.9994001389,
    "longitude": 50.3202018738
  },
  "ANN": {
    "country": "USA",
    "latitude": 55.0424003601,
    "longitude": -131.5720062256,
    "city": "Annette"
  },
  "ANO": {
    "country": "Mosambik",
    "latitude": -16.1818695068,
    "longitude": 39.9452171326,
    "city": "Angoche"
  },
  "ANP": {
    "country": "USA",
    "latitude": 38.9429016113,
    "longitude": -76.568397522,
    "city": "Annapolis"
  },
  "ANQ": {
    "country": "USA",
    "latitude": 41.6397018433,
    "longitude": -85.0835037231,
    "city": "Angola"
  },
  "ANR": {
    "country": "Belgien",
    "latitude": 51.1893997192,
    "longitude": 4.4602799416,
    "city": "Antwerp"
  },
  "ANS": {
    "country": "Peru",
    "latitude": -13.7063999176,
    "longitude": -73.350402832,
    "city": "Andahuaylas"
  },
  "ANU": {
    "country": "Antigua und Barbuda",
    "latitude": 17.1367,
    "longitude": -61.792702,
    "city": "St. George"
  },
  "ANV": {
    "country": "USA",
    "latitude": 62.64670181,
    "longitude": -160.1909943,
    "city": "Anvik"
  },
  "ANW": {
    "country": "USA",
    "latitude": 42.5792007446,
    "longitude": -99.9929962158,
    "city": "Ainsworth"
  },
  "ANX": {
    "country": "Norwegen",
    "latitude": 69.2925033569,
    "longitude": 16.1441993713,
    "city": "Andenes"
  },
  "ANY": {
    "country": "USA",
    "latitude": 37.1585006714,
    "longitude": -98.0795974731,
    "city": "Anthony"
  },
  "AOC": {
    "country": "Deutschland",
    "latitude": 50.9819450378,
    "longitude": 12.5063886642,
    "city": "Altenburg"
  },
  "AOE": {
    "country": "Türkei",
    "latitude": 39.8098983765,
    "longitude": 30.5193996429,
    "city": "Eskisehir"
  },
  "AOG": {
    "country": "China",
    "latitude": 41.1053009033,
    "longitude": 122.8539962769,
    "city": "Anshan"
  },
  "AOH": {
    "country": "USA",
    "latitude": 40.7069015503,
    "longitude": -84.0267028809,
    "city": "Lima"
  },
  "AOI": {
    "country": "Italien",
    "latitude": 43.6162986755,
    "longitude": 13.3622999191,
    "city": "Ancona"
  },
  "AOJ": {
    "country": "Japan",
    "latitude": 40.7346992493,
    "longitude": 140.6909942627,
    "city": "Aomori"
  },
  "AOK": {
    "country": "Griechenland",
    "latitude": 35.4213981628,
    "longitude": 27.1459999084,
    "city": "Karpathos Island"
  },
  "AOL": {
    "country": "Argentinien",
    "latitude": -29.6894,
    "longitude": -57.1521,
    "city": "Paso de los Libres"
  },
  "AOO": {
    "country": "USA",
    "latitude": 40.29639816,
    "longitude": -78.31999969,
    "city": "Altoona"
  },
  "AOP": {
    "country": "Peru",
    "latitude": -2.7961299419,
    "longitude": -76.4665985107,
    "city": "Andoas"
  },
  "AOR": {
    "country": "Malaysia",
    "latitude": 6.1896700859,
    "longitude": 100.3980026245,
    "city": "Alor Satar"
  },
  "AOT": {
    "country": "Italien",
    "latitude": 45.7384986877,
    "longitude": 7.3687200546,
    "city": "Aosta"
  },
  "AOU": {
    "country": "Laos",
    "latitude": 14.814715357,
    "longitude": 106.821699142,
    "city": "Attopeu"
  },
  "APA": {
    "country": "USA",
    "latitude": 39.57009888,
    "longitude": -104.848999,
    "city": "Denver"
  },
  "APB": {
    "country": "Bolivien",
    "latitude": -14.7356004715,
    "longitude": -68.4119033813,
    "city": "Apolo"
  },
  "APC": {
    "country": "USA",
    "latitude": 38.2131996155,
    "longitude": -122.28099823,
    "city": "Napa"
  },
  "APE": {
    "country": "Peru",
    "latitude": -15.3538999557,
    "longitude": -75.167098999,
    "city": "San Juan Aposento"
  },
  "APF": {
    "country": "USA",
    "latitude": 26.1525993347,
    "longitude": -81.7752990723,
    "city": "Naples"
  },
  "APG": {
    "country": "USA",
    "latitude": 39.46620178,
    "longitude": -76.16880035,
    "city": "Aberdeen Proving Grounds(Aberdeen)"
  },
  "APH": {
    "country": "USA",
    "latitude": 38.06890106,
    "longitude": -77.31829834,
    "city": "Fort A. P. Hill"
  },
  "API": {
    "country": "Kolumbien",
    "latitude": 4.07607,
    "longitude": -73.5627,
    "city": "Apiay"
  },
  "APK": {
    "country": "Französisch-Polynesien",
    "latitude": -15.5735998154,
    "longitude": -146.4149932861,
    "city": "Apataki"
  },
  "APL": {
    "country": "Mosambik",
    "latitude": -15.1056003571,
    "longitude": 39.2817993164,
    "city": "Nampula"
  },
  "APN": {
    "country": "USA",
    "latitude": 45.0780983,
    "longitude": -83.56030273,
    "city": "Alpena"
  },
  "APO": {
    "country": "Kolumbien",
    "latitude": 7.81196,
    "longitude": -76.7164,
    "city": "Carepa"
  },
  "APQ": {
    "country": "Brasilien",
    "latitude": -9.7753601074,
    "longitude": -36.6291999817,
    "city": "Arapiraca"
  },
  "APS": {
    "country": "Brasilien",
    "latitude": -16.3623008728,
    "longitude": -48.9271011353,
    "city": "Anapolis"
  },
  "APT": {
    "country": "USA",
    "latitude": 35.0606994629,
    "longitude": -85.5852966309,
    "city": "Jasper"
  },
  "APU": {
    "country": "Brasilien",
    "latitude": -23.609500885,
    "longitude": -51.3844985962,
    "city": "Apucarana"
  },
  "APV": {
    "country": "USA",
    "latitude": 34.5752983093,
    "longitude": -117.185997009,
    "city": "Apple Valley"
  },
  "APW": {
    "country": "Samoa",
    "latitude": -13.8299999237,
    "longitude": -172.0079956055,
    "city": "Apia"
  },
  "APX": {
    "country": "Brasilien",
    "latitude": -23.3528995514,
    "longitude": -51.4916992188,
    "city": "Arapongas"
  },
  "APY": {
    "country": "Brasilien",
    "latitude": -9.0836105347,
    "longitude": -45.9505577087,
    "city": "Alto Parnaiba"
  },
  "APZ": {
    "country": "Argentinien",
    "latitude": -38.9754981995,
    "longitude": -70.1136016846,
    "city": "Zapala"
  },
  "AQA": {
    "country": "Brasilien",
    "latitude": -21.8120002747,
    "longitude": -48.1329994202,
    "city": "Araraquara"
  },
  "AQB": {
    "country": "Guatemala",
    "latitude": 15.0122003555,
    "longitude": -91.1505966187,
    "city": "Santa Cruz del Quiche"
  },
  "AQG": {
    "country": "China",
    "latitude": 30.5821990967,
    "longitude": 117.0500030518,
    "city": "Anqing"
  },
  "AQI": {
    "country": "Saudi Arabien",
    "latitude": 28.3351993561,
    "longitude": 46.1250991821,
    "city": "Qaisumah"
  },
  "AQJ": {
    "country": "Jordanien",
    "latitude": 29.6116008759,
    "longitude": 35.0181007385,
    "city": "Aqaba"
  },
  "AQM": {
    "country": "Brasilien",
    "latitude": -10.1780557632,
    "longitude": -62.8255577087,
    "city": "Ariquemes"
  },
  "AQP": {
    "country": "Peru",
    "latitude": -16.3411006927,
    "longitude": -71.5830993652,
    "city": "Arequipa"
  },
  "ARA": {
    "country": "USA",
    "latitude": 30.0377998352,
    "longitude": -91.8839035034,
    "city": "New Iberia"
  },
  "ARB": {
    "country": "USA",
    "latitude": 42.2229995728,
    "longitude": -83.7455978394,
    "city": "Ann Arbor"
  },
  "ARC": {
    "country": "USA",
    "latitude": 68.1147003174,
    "longitude": -145.578994751,
    "city": "Arctic Village"
  },
  "ARD": {
    "country": "Indonesien",
    "latitude": -8.1323404312,
    "longitude": 124.5970001221,
    "city": "Alor Island"
  },
  "ARE": {
    "country": "Puerto Rico",
    "latitude": 18.4500007629,
    "longitude": -66.6753005981,
    "city": "Arecibo"
  },
  "ARG": {
    "country": "USA",
    "latitude": 36.1246667,
    "longitude": -90.9251111,
    "city": "Walnut Ridge"
  },
  "ARH": {
    "country": "Russland",
    "latitude": 64.6003036499,
    "longitude": 40.7167015076,
    "city": "Archangelsk"
  },
  "ARI": {
    "country": "Chile",
    "latitude": -18.3484992981,
    "longitude": -70.3386993408,
    "city": "Arica"
  },
  "ARJ": {
    "country": "Indonesien",
    "latitude": -2.9333329201,
    "longitude": 140.7833404541,
    "city": "Arso-Papua Island"
  },
  "ARK": {
    "country": "Tansania",
    "latitude": -3.3677899837,
    "longitude": 36.6333007813,
    "city": "Arusha"
  },
  "ARL": {
    "country": "Burkina Faso",
    "latitude": 11.5970001221,
    "longitude": 1.4830000401,
    "city": "Arly"
  },
  "ARM": {
    "country": "Australien",
    "latitude": -30.5280990601,
    "longitude": 151.617004395,
    "city": "Armidale"
  },
  "ARN": {
    "country": "Schweden",
    "latitude": 59.6519012451,
    "longitude": 17.9186000824,
    "city": "Stockholm"
  },
  "ARR": {
    "country": "Argentinien",
    "latitude": -45.0135993958,
    "longitude": -70.8122024536,
    "city": "Alto Rio Senguerr"
  },
  "ARS": {
    "country": "Brasilien",
    "latitude": -15.8966999054,
    "longitude": -52.0956001282,
    "city": "Aragarcas"
  },
  "ART": {
    "country": "USA",
    "latitude": 43.9919013977,
    "longitude": -76.021697998,
    "city": "Watertown"
  },
  "ARU": {
    "country": "Brasilien",
    "latitude": -21.1413002014,
    "longitude": -50.4247016907,
    "city": "Aracatuba"
  },
  "ARV": {
    "country": "USA",
    "latitude": 45.92789841,
    "longitude": -89.73090363,
    "city": "Minocqua-Woodruff"
  },
  "ARW": {
    "country": "Rumänien",
    "latitude": 46.1766014099,
    "longitude": 21.2619991302,
    "city": "Arad"
  },
  "ARY": {
    "country": "Australien",
    "latitude": -37.3093986511,
    "longitude": 142.9889984131
  },
  "ARZ": {
    "country": "Angola",
    "latitude": -7.2594399452,
    "longitude": 12.8631000519,
    "city": "N'zeto"
  },
  "ASA": {
    "country": "Eritrea",
    "latitude": 13.0718002319,
    "longitude": 42.6450004578,
    "city": "Asab"
  },
  "ASB": {
    "country": "Turkmenistan",
    "latitude": 37.9868011475,
    "longitude": 58.361000061,
    "city": "Ashgabat"
  },
  "ASC": {
    "country": "Bolivien",
    "latitude": -15.9302997589,
    "longitude": -63.1567001343,
    "city": "Ascension de Guarayos"
  },
  "ASD": {
    "country": "Bahamas",
    "latitude": 24.6979007721,
    "longitude": -77.7956008911
  },
  "ASE": {
    "country": "USA",
    "latitude": 39.22320175,
    "longitude": -106.8690033,
    "city": "Aspen"
  },
  "ASF": {
    "country": "Russland",
    "latitude": 46.2832984924,
    "longitude": 48.0063018799,
    "city": "Astrakhan"
  },
  "ASG": {
    "country": "Neuseeland",
    "latitude": -43.903301239,
    "longitude": 171.7969970703
  },
  "ASH": {
    "country": "USA",
    "latitude": 42.7817001343,
    "longitude": -71.5148010254,
    "city": "Nashua"
  },
  "ASI": {
    "country": "St. Helena",
    "latitude": -7.9696002007,
    "longitude": -14.393699646,
    "city": "Ascension Island"
  },
  "ASJ": {
    "country": "Japan",
    "latitude": 28.4305992126,
    "longitude": 129.7129974365,
    "city": "Amami"
  },
  "ASK": {
    "country": "Elfenbeinküste",
    "latitude": 6.9031701088,
    "longitude": -5.3655800819,
    "city": "Yamoussoukro"
  },
  "ASL": {
    "country": "USA",
    "latitude": 32.5205001831,
    "longitude": -94.307800293,
    "city": "Marshall"
  },
  "ASM": {
    "country": "Eritrea",
    "latitude": 15.2918996811,
    "longitude": 38.9107017517,
    "city": "Asmara"
  },
  "ASN": {
    "country": "USA",
    "latitude": 33.5699005127,
    "longitude": -86.0509033203,
    "city": "Talladega"
  },
  "ASO": {
    "country": "Äthiopien",
    "latitude": 10.0185003281,
    "longitude": 34.5862998962,
    "city": "Asosa"
  },
  "ASP": {
    "country": "Australien",
    "latitude": -23.8066997528,
    "longitude": 133.9019927979,
    "city": "Alice Springs"
  },
  "ASQ": {
    "country": "USA",
    "latitude": 39.4679985046,
    "longitude": -117.194999695,
    "city": "Austin"
  },
  "ASR": {
    "country": "Türkei",
    "latitude": 38.770401001,
    "longitude": 35.4953994751,
    "city": "Kayseri"
  },
  "AST": {
    "country": "USA",
    "latitude": 46.158000946,
    "longitude": -123.878997803,
    "city": "Astoria"
  },
  "ASU": {
    "country": "Paraguay",
    "latitude": -25.2399997711,
    "longitude": -57.5200004578,
    "city": "Asuncion"
  },
  "ASV": {
    "country": "Kenia",
    "latitude": -2.6450500488,
    "longitude": 37.2531013489,
    "city": "Amboseli National Park"
  },
  "ASW": {
    "country": "Ägypten",
    "latitude": 23.9643993378,
    "longitude": 32.8199996948,
    "city": "Aswan"
  },
  "ASX": {
    "country": "USA",
    "latitude": 46.54850006,
    "longitude": -90.91899872,
    "city": "Ashland"
  },
  "ASY": {
    "country": "USA",
    "latitude": 46.0238990784,
    "longitude": -99.3526000977,
    "city": "Ashley"
  },
  "ATA": {
    "country": "Peru",
    "latitude": -9.3474397659,
    "longitude": -77.5983963013,
    "city": "Anta"
  },
  "ATB": {
    "country": "Sudan",
    "latitude": 17.7103443146,
    "longitude": 34.05701828,
    "city": "Atbara"
  },
  "ATC": {
    "country": "Bahamas",
    "latitude": 24.6294002533,
    "longitude": -75.6737976074,
    "city": "Arthur's Town"
  },
  "ATD": {
    "country": "Salomonen",
    "latitude": -8.8733301163,
    "longitude": 161.0110015869,
    "city": "Atoifi"
  },
  "ATE": {
    "country": "USA",
    "latitude": 34.1926002502,
    "longitude": -95.6499023438,
    "city": "Antlers"
  },
  "ATF": {
    "country": "Ecuador",
    "latitude": -1.2120699883,
    "longitude": -78.5746002197,
    "city": "Ambato"
  },
  "ATH": {
    "country": "Griechenland",
    "latitude": 37.9364013672,
    "longitude": 23.9444999695,
    "city": "Athen"
  },
  "ATI": {
    "country": "Uruguay",
    "latitude": -30.4006996155,
    "longitude": -56.507900238,
    "city": "Artigas"
  },
  "ATJ": {
    "country": "Madagaskar",
    "latitude": -19.8392214824,
    "longitude": 47.0637130737,
    "city": "Antsirabe"
  },
  "ATK": {
    "country": "USA",
    "latitude": 70.467300415,
    "longitude": -157.4360046387,
    "city": "Atqasuk"
  },
  "ATL": {
    "country": "USA",
    "latitude": 33.6366996765,
    "longitude": -84.4281005859,
    "city": "Atlanta"
  },
  "ATM": {
    "country": "Brasilien",
    "latitude": -3.2539100647,
    "longitude": -52.2540016174,
    "city": "Altamira"
  },
  "ATO": {
    "country": "USA",
    "latitude": 39.2109985352,
    "longitude": -82.2313995361,
    "city": "Athens/Albany"
  },
  "ATP": {
    "country": "Papua-Neuguinea",
    "latitude": -3.1436111111,
    "longitude": 142.346805556,
    "city": "Aitape"
  },
  "ATQ": {
    "country": "Indien",
    "latitude": 31.7096004486,
    "longitude": 74.7973022461,
    "city": "Amritsar"
  },
  "ATR": {
    "country": "Mauretanien",
    "latitude": 20.5067996979,
    "longitude": -13.0431995392,
    "city": "Atar"
  },
  "ATS": {
    "country": "USA",
    "latitude": 32.8525009155,
    "longitude": -104.468002319,
    "city": "Artesia"
  },
  "ATV": {
    "country": "Tschad",
    "latitude": 13.2389001846,
    "longitude": 18.3132991791,
    "city": "Ati"
  },
  "ATW": {
    "country": "USA",
    "latitude": 44.2580986023,
    "longitude": -88.5190963745,
    "city": "Appleton"
  },
  "ATY": {
    "country": "USA",
    "latitude": 44.91400146,
    "longitude": -97.15470123,
    "city": "Watertown"
  },
  "ATZ": {
    "country": "Ägypten",
    "latitude": 27.0464992523,
    "longitude": 31.0119991302,
    "city": "Assiut"
  },
  "AUA": {
    "country": "Aruba",
    "latitude": 12.5013999939,
    "longitude": -70.0151977539,
    "city": "Oranjestad"
  },
  "AUC": {
    "country": "Kolumbien",
    "latitude": 7.06888,
    "longitude": -70.7369,
    "city": "Arauca"
  },
  "AUD": {
    "country": "Australien",
    "latitude": -18.5149993896,
    "longitude": 139.8780059814
  },
  "AUF": {
    "country": "Frankreich",
    "latitude": 47.8502006531,
    "longitude": 3.49710989,
    "city": "Auxerre/Branches"
  },
  "AUG": {
    "country": "USA",
    "latitude": 44.3205986023,
    "longitude": -69.7973022461,
    "city": "Augusta"
  },
  "AUH": {
    "country": "Vereinigte Arabische Emirate",
    "latitude": 24.4330005646,
    "longitude": 54.6511001587,
    "city": "Abu Dhabi"
  },
  "AUJ": {
    "country": "Papua-Neuguinea",
    "latitude": -4.2156666667,
    "longitude": 142.823166667,
    "city": "Ambunti"
  },
  "AUK": {
    "country": "USA",
    "latitude": 62.6800422668,
    "longitude": -164.659927368,
    "city": "Alakanuk"
  },
  "AUM": {
    "country": "USA",
    "latitude": 43.66500092,
    "longitude": -92.93340302,
    "city": "Austin"
  },
  "AUN": {
    "country": "USA",
    "latitude": 38.95479965,
    "longitude": -121.0820007,
    "city": "Auburn"
  },
  "AUO": {
    "country": "USA",
    "latitude": 32.61510086,
    "longitude": -85.43399811,
    "city": "Auburn"
  },
  "AUQ": {
    "country": "Französisch-Polynesien",
    "latitude": -9.7687902451,
    "longitude": -139.0110015869
  },
  "AUR": {
    "country": "Frankreich",
    "latitude": 44.8913993835,
    "longitude": 2.4219400883,
    "city": "Aurillac"
  },
  "AUS": {
    "country": "USA",
    "latitude": 30.1944999695,
    "longitude": -97.6698989868,
    "city": "Austin"
  },
  "AUT": {
    "country": "Osttimor",
    "latitude": -8.2105197906,
    "longitude": 125.6159973145,
    "city": "Atauro"
  },
  "AUU": {
    "country": "Australien",
    "latitude": -13.3538999557,
    "longitude": 141.720993042
  },
  "AUW": {
    "country": "USA",
    "latitude": 44.9262008667,
    "longitude": -89.6266021729,
    "city": "Wausau"
  },
  "AUX": {
    "country": "Brasilien",
    "latitude": -7.2278699875,
    "longitude": -48.2405014038,
    "city": "Araguaina"
  },
  "AUY": {
    "country": "Vanuatu",
    "latitude": -20.2492008209,
    "longitude": 169.7709960938,
    "city": "Anelghowhat"
  },
  "AUZ": {
    "country": "USA",
    "latitude": 41.771900177,
    "longitude": -88.4757003784,
    "city": "Chicago/Aurora"
  },
  "AVA": {
    "country": "China",
    "latitude": 26.2605555556,
    "longitude": 105.873333333,
    "city": "Anshun"
  },
  "AVB": {
    "country": "Italien",
    "latitude": 46.0318984985,
    "longitude": 12.5965003967,
    "city": "Aviano"
  },
  "AVG": {
    "country": "Australien",
    "latitude": -15.6999998093,
    "longitude": 130
  },
  "AVI": {
    "country": "Kuba",
    "latitude": 22.0270996094,
    "longitude": -78.7895965576,
    "city": "Ciego de Avila"
  },
  "AVK": {
    "country": "Mongolei",
    "latitude": 46.2503013611,
    "longitude": 102.8020019531,
    "city": "Arvaikheer"
  },
  "AVL": {
    "country": "USA",
    "latitude": 35.4361991882,
    "longitude": -82.5418014526,
    "city": "Asheville"
  },
  "AVN": {
    "country": "Frankreich",
    "latitude": 43.9072990417,
    "longitude": 4.9018301964,
    "city": "Avignon/Caumont"
  },
  "AVO": {
    "country": "USA",
    "latitude": 27.59119987,
    "longitude": -81.52780151,
    "city": "Avon Park"
  },
  "AVP": {
    "country": "USA",
    "latitude": 41.3385009766,
    "longitude": -75.7233963013,
    "city": "Wilkes-Barre/Scranton"
  },
  "AVU": {
    "country": "Salomonen",
    "latitude": -9.8683333333,
    "longitude": 160.410555556
  },
  "AVV": {
    "country": "Australien",
    "latitude": -38.0393981934,
    "longitude": 144.468994141,
    "city": "Melbourne"
  },
  "AVW": {
    "country": "USA",
    "latitude": 32.4095993042,
    "longitude": -111.218002319,
    "city": "Tucson"
  },
  "AVX": {
    "country": "USA",
    "latitude": 33.4048995972,
    "longitude": -118.4160003662,
    "city": "Avalon"
  },
  "AWA": {
    "country": "Äthiopien",
    "latitude": 7.0669999123,
    "longitude": 38.5,
    "city": "Awassa"
  },
  "AWB": {
    "country": "Papua-Neuguinea",
    "latitude": -8.0061101914,
    "longitude": 142.748352051,
    "city": "Awaba"
  },
  "AWD": {
    "country": "Vanuatu",
    "latitude": -19.2399997711,
    "longitude": 169.6049957275,
    "city": "Aniwa"
  },
  "AWK": {
    "country": "USA Outlying Islands",
    "latitude": 19.2821006775,
    "longitude": 166.6360015869,
    "city": "Wake Island"
  },
  "AWM": {
    "country": "USA",
    "latitude": 35.1351013184,
    "longitude": -90.2343978882,
    "city": "West Memphis"
  },
  "AWN": {
    "country": "Australien",
    "latitude": -26.5333003998,
    "longitude": 139.266998291
  },
  "AWP": {
    "country": "Australien",
    "latitude": -20.5,
    "longitude": 137.75
  },
  "AWZ": {
    "country": "Iran",
    "latitude": 31.3374004364,
    "longitude": 48.7620010376,
    "city": "Ahwaz"
  },
  "AXA": {
    "country": "Anguilla",
    "latitude": 18.2047996521,
    "longitude": -63.0550994873,
    "city": "The Valley"
  },
  "AXC": {
    "country": "Australien",
    "latitude": -22.9666996002,
    "longitude": 145.2420043945
  },
  "AXD": {
    "country": "Griechenland",
    "latitude": 40.8558998108,
    "longitude": 25.9563007355,
    "city": "Alexandroupolis"
  },
  "AXE": {
    "country": "Brasilien",
    "latitude": -26.8755569458,
    "longitude": -52.3730545044,
    "city": "Xanxere"
  },
  "AXG": {
    "country": "USA",
    "latitude": 43.0778999329,
    "longitude": -94.2720031738,
    "city": "Algona"
  },
  "AXJ": {
    "country": "Japan",
    "latitude": 32.4824981689,
    "longitude": 130.158996582
  },
  "AXK": {
    "country": "Jemen",
    "latitude": 14.5513000488,
    "longitude": 46.8261985779
  },
  "AXL": {
    "country": "Australien",
    "latitude": -19.0601997375,
    "longitude": 136.7100067139
  },
  "AXM": {
    "country": "Kolumbien",
    "latitude": 4.45278,
    "longitude": -75.7664,
    "city": "Armenia"
  },
  "AXN": {
    "country": "USA",
    "latitude": 45.8662986755,
    "longitude": -95.3946990967,
    "city": "Alexandria"
  },
  "AXP": {
    "country": "Bahamas",
    "latitude": 22.4417991638,
    "longitude": -73.9709014893,
    "city": "Spring Point"
  },
  "AXR": {
    "country": "Französisch-Polynesien",
    "latitude": -15.2482995987,
    "longitude": -146.6170043945
  },
  "AXS": {
    "country": "USA",
    "latitude": 34.6963996887,
    "longitude": -99.3403015137,
    "city": "Altus"
  },
  "AXT": {
    "country": "Japan",
    "latitude": 39.6156005859,
    "longitude": 140.2189941406,
    "city": "Akita"
  },
  "AXU": {
    "country": "Äthiopien",
    "latitude": 14.1468000412,
    "longitude": 38.7728004456
  },
  "AXV": {
    "country": "USA",
    "latitude": 40.49340057,
    "longitude": -84.29889679,
    "city": "Wapakoneta"
  },
  "AXX": {
    "country": "USA",
    "latitude": 36.422000885,
    "longitude": -105.290000916,
    "city": "Angel Fire"
  },
  "AYG": {
    "country": "Kolumbien",
    "latitude": 1.54417,
    "longitude": -73.9333,
    "city": "San Vicente Del Caguan"
  },
  "AYK": {
    "country": "Kasachstan",
    "latitude": 50.3185997009,
    "longitude": 66.952796936,
    "city": "Arkalyk"
  },
  "AYL": {
    "country": "Australien",
    "latitude": -18.018079031,
    "longitude": 135.535068512
  },
  "AYN": {
    "country": "China",
    "latitude": 36.1338996887,
    "longitude": 114.34400177,
    "city": "Anyang"
  },
  "AYO": {
    "country": "Paraguay",
    "latitude": -27.3700008392,
    "longitude": -56.8499984741,
    "city": "Ayolas"
  },
  "AYP": {
    "country": "Peru",
    "latitude": -13.154800415,
    "longitude": -74.2043991089,
    "city": "Ayacucho"
  },
  "AYQ": {
    "country": "Australien",
    "latitude": -25.1861000061,
    "longitude": 130.9759979248,
    "city": "Ayers Rock"
  },
  "AYR": {
    "country": "Australien",
    "latitude": -19.584400177,
    "longitude": 147.328994751
  },
  "AYS": {
    "country": "USA",
    "latitude": 31.2490997314,
    "longitude": -82.3955001831,
    "city": "Waycross"
  },
  "AYT": {
    "country": "Türkei",
    "latitude": 36.8987007141,
    "longitude": 30.8005008698,
    "city": "Antalya"
  },
  "AYU": {
    "country": "Papua-Neuguinea",
    "latitude": -6.3380555556,
    "longitude": 145.904166667,
    "city": "Aiyura Valley"
  },
  "AZA": {
    "country": "USA",
    "latitude": 33.30780029,
    "longitude": -111.6549988,
    "city": "Phoenix"
  },
  "AZD": {
    "country": "Iran",
    "latitude": 31.9048995972,
    "longitude": 54.2765007019,
    "city": "Yazd"
  },
  "AZI": {
    "country": "Vereinigte Arabische Emirate",
    "latitude": 24.4283008575,
    "longitude": 54.4580993652
  },
  "AZL": {
    "country": "Brasilien",
    "latitude": -13.4655278136,
    "longitude": -58.8669347763,
    "city": "Sapezal"
  },
  "AZN": {
    "country": "Usbekistan",
    "latitude": 40.7276992798,
    "longitude": 72.2939987183,
    "city": "Andizhan"
  },
  "AZO": {
    "country": "USA",
    "latitude": 42.2349014282,
    "longitude": -85.5521011353,
    "city": "Kalamazoo"
  },
  "AZP": {
    "country": "Mexiko",
    "latitude": 19.5748004913,
    "longitude": -99.2888031006
  },
  "AZR": {
    "country": "Algerien",
    "latitude": 27.837600708,
    "longitude": -0.1864140034
  },
  "AZS": {
    "country": "Dominikanische Republik",
    "latitude": 19.2670001984,
    "longitude": -69.7419967651,
    "city": "Samana"
  },
  "AZZ": {
    "country": "Angola",
    "latitude": -7.8622198105,
    "longitude": 13.1161003113,
    "city": "Ambriz"
  },
  "BAB": {
    "country": "USA",
    "latitude": 39.136100769,
    "longitude": -121.43699646,
    "city": "Marysville"
  },
  "BAD": {
    "country": "USA",
    "latitude": 32.5018005371,
    "longitude": -93.6626968384,
    "city": "Bossier City"
  },
  "BAE": {
    "country": "Frankreich",
    "latitude": 44.3883018494,
    "longitude": 6.6102800369,
    "city": "Le Castellet"
  },
  "BAF": {
    "country": "USA",
    "latitude": 42.1577987671,
    "longitude": -72.7155990601,
    "city": "Westfield/Springfield"
  },
  "BAG": {
    "country": "Philippinen",
    "latitude": 16.3750991821,
    "longitude": 120.6200027466,
    "city": "Baguio City"
  },
  "BAH": {
    "country": "Bahrain",
    "latitude": 26.2707996368,
    "longitude": 50.6335983276,
    "city": "Manama"
  },
  "BAI": {
    "country": "Costa Rica",
    "latitude": 9.1636104584,
    "longitude": -83.3299026489,
    "city": "Punta Arenas"
  },
  "BAL": {
    "country": "Türkei",
    "latitude": 37.9290008545,
    "longitude": 41.1166000366,
    "city": "Batman"
  },
  "BAM": {
    "country": "USA",
    "latitude": 40.5989990234,
    "longitude": -116.8740005493,
    "city": "Battle Mountain"
  },
  "BAN": {
    "country": "Kongo",
    "latitude": -4.3169999123,
    "longitude": 20.4330005646,
    "city": "Basongo"
  },
  "BAO": {
    "country": "Thailand",
    "latitude": 17.3829994202,
    "longitude": 102.8000030518,
    "city": "Ban Mak Khaen"
  },
  "BAQ": {
    "country": "Kolumbien",
    "latitude": 10.8896,
    "longitude": -74.7808,
    "city": "Barranquilla"
  },
  "BAS": {
    "country": "Salomonen",
    "latitude": -6.990745,
    "longitude": 155.886656,
    "city": "Ballalae"
  },
  "BAT": {
    "country": "Brasilien",
    "latitude": -20.5844993591,
    "longitude": -48.5941009521,
    "city": "Barretos"
  },
  "BAU": {
    "country": "Brasilien",
    "latitude": -22.3449993134,
    "longitude": -49.0537986755,
    "city": "Bauru"
  },
  "BAV": {
    "country": "China",
    "latitude": 40.5600013733,
    "longitude": 109.9970016479,
    "city": "Baotou"
  },
  "BAX": {
    "country": "Russland",
    "latitude": 53.3638000488,
    "longitude": 83.5384979248,
    "city": "Barnaul"
  },
  "BAY": {
    "country": "Rumänien",
    "latitude": 47.6584014893,
    "longitude": 23.4699993134,
    "city": "Baia Mare"
  },
  "BAZ": {
    "country": "Brasilien",
    "latitude": -0.9812920094,
    "longitude": -62.9196014404,
    "city": "Barcelos"
  },
  "BBA": {
    "country": "Chile",
    "latitude": -45.9160995483,
    "longitude": -71.6894989014,
    "city": "Balmaceda"
  },
  "BBB": {
    "country": "USA",
    "latitude": 45.3319015503,
    "longitude": -95.6505966187,
    "city": "Benson"
  },
  "BBC": {
    "country": "USA",
    "latitude": 28.9733009338,
    "longitude": -95.8635025024,
    "city": "Bay City"
  },
  "BBD": {
    "country": "USA",
    "latitude": 31.1793003082,
    "longitude": -99.3238983154,
    "city": "Brady"
  },
  "BBE": {
    "country": "Australien",
    "latitude": -27.3285999298,
    "longitude": 117.672996521,
    "city": "Big Bell"
  },
  "BBG": {
    "country": "Kiribati",
    "latitude": 3.0858299732,
    "longitude": 172.8110046387,
    "city": "Butaritari Atoll"
  },
  "BBH": {
    "country": "Deutschland",
    "latitude": 54.3375015259,
    "longitude": 12.6997003555,
    "city": "Barth"
  },
  "BBI": {
    "country": "Indien",
    "latitude": 20.2444000244,
    "longitude": 85.8178024292,
    "city": "Bhubaneswar"
  },
  "BBJ": {
    "country": "Deutschland",
    "latitude": 49.9452781677,
    "longitude": 6.5650000572,
    "city": "Bitburg"
  },
  "BBK": {
    "country": "Botswana",
    "latitude": -17.8328990936,
    "longitude": 25.162399292,
    "city": "Kasane"
  },
  "BBL": {
    "country": "Australien",
    "latitude": -27.4083003998,
    "longitude": 141.8079986572
  },
  "BBM": {
    "country": "Kambodscha",
    "latitude": 13.0956001282,
    "longitude": 103.2239990234,
    "city": "Battambang"
  },
  "BBN": {
    "country": "Malaysia",
    "latitude": 3.7338900566,
    "longitude": 115.4789962769,
    "city": "Bario"
  },
  "BBO": {
    "country": "Somalia",
    "latitude": 10.3892002106,
    "longitude": 44.9411010742,
    "city": "Berbera"
  },
  "BBP": {
    "country": "Vereinigtes Königreich",
    "latitude": 50.6781005859,
    "longitude": -1.1094399691,
    "city": "Bembridge"
  },
  "BBQ": {
    "country": "Antigua und Barbuda",
    "latitude": 17.635799,
    "longitude": -61.828602,
    "city": "Codrington"
  },
  "BBR": {
    "country": "Guadeloupe",
    "latitude": 16.013299942,
    "longitude": -61.7421989441,
    "city": "Basse Terre"
  },
  "BBS": {
    "country": "Vereinigtes Königreich",
    "latitude": 51.3238983154,
    "longitude": -0.8475000262,
    "city": "Yateley"
  },
  "BBT": {
    "country": "Zentralafrikanische Republik",
    "latitude": 4.2215800285,
    "longitude": 15.7863998413,
    "city": "Berberati"
  },
  "BBU": {
    "country": "Rumänien",
    "latitude": 44.503200531,
    "longitude": 26.1021003723,
    "city": "Bucharest"
  },
  "BBV": {
    "country": "Elfenbeinküste",
    "latitude": 4.6434130669,
    "longitude": -6.9239616394,
    "city": "Grand-Bereby"
  },
  "BBW": {
    "country": "USA",
    "latitude": 41.4365005493,
    "longitude": -99.6421966553,
    "city": "Broken Bow"
  },
  "BBX": {
    "country": "USA",
    "latitude": 40.1375007629,
    "longitude": -75.2650985718,
    "city": "Philadelphia"
  },
  "BBY": {
    "country": "Zentralafrikanische Republik",
    "latitude": 5.8469400406,
    "longitude": 20.6474990845,
    "city": "Bambari"
  },
  "BBZ": {
    "country": "Sambia",
    "latitude": -13.5361003876,
    "longitude": 23.108499527,
    "city": "Zambezi"
  },
  "BCA": {
    "country": "Kuba",
    "latitude": 20.3652992249,
    "longitude": -74.5062026978,
    "city": "Baracoa"
  },
  "BCB": {
    "country": "USA",
    "latitude": 37.2075996399,
    "longitude": -80.4077987671,
    "city": "Blacksburg"
  },
  "BCD": {
    "country": "Philippinen",
    "latitude": 10.7763996124,
    "longitude": 123.0149993896,
    "city": "Bacolod City"
  },
  "BCE": {
    "country": "USA",
    "latitude": 37.706401825,
    "longitude": -112.144996643,
    "city": "Bryce Canyon"
  },
  "BCF": {
    "country": "Zentralafrikanische Republik",
    "latitude": 6.5170001984,
    "longitude": 18.2670001984,
    "city": "Bouca"
  },
  "BCG": {
    "country": "Guyana",
    "latitude": 7.6999998093,
    "longitude": -59.1666603088,
    "city": "Bemichi"
  },
  "BCH": {
    "country": "Osttimor",
    "latitude": -8.4890298843,
    "longitude": 126.401000977,
    "city": "Baucau"
  },
  "BCI": {
    "country": "Australien",
    "latitude": -23.5652999878,
    "longitude": 145.307006836,
    "city": "Barcaldine"
  },
  "BCL": {
    "country": "Costa Rica",
    "latitude": 10.768699646,
    "longitude": -83.5856018066,
    "city": "Pococi"
  },
  "BCM": {
    "country": "Rumänien",
    "latitude": 46.521900177,
    "longitude": 26.9102993011,
    "city": "Bacau"
  },
  "BCN": {
    "country": "Spanien",
    "latitude": 41.2971000671,
    "longitude": 2.0784599781,
    "city": "Barcelona"
  },
  "BCO": {
    "country": "Äthiopien",
    "latitude": 5.7828698158,
    "longitude": 36.5620002747,
    "city": "Baco"
  },
  "BCR": {
    "country": "Brasilien",
    "latitude": -8.8345603943,
    "longitude": -67.3124008179,
    "city": "Boca Do Acre"
  },
  "BCS": {
    "country": "USA",
    "latitude": 29.8661003113,
    "longitude": -90.0222015381,
    "city": "Belle Chasse"
  },
  "BCT": {
    "country": "USA",
    "latitude": 26.3784999847,
    "longitude": -80.1076965332,
    "city": "Boca Raton"
  },
  "BCX": {
    "country": "Russland",
    "latitude": 53.9380989075,
    "longitude": 58.3400001526,
    "city": "Beloretsk"
  },
  "BDA": {
    "country": "Bermuda",
    "latitude": 32.3639984131,
    "longitude": -64.6787033081,
    "city": "Hamilton"
  },
  "BDB": {
    "country": "Australien",
    "latitude": -24.9039001465,
    "longitude": 152.319000244,
    "city": "Bundaberg"
  },
  "BDC": {
    "country": "Brasilien",
    "latitude": -5.5025,
    "longitude": -45.215833,
    "city": "Barra Do Corda"
  },
  "BDD": {
    "country": "Australien",
    "latitude": -10.1499996185,
    "longitude": 142.1734
  },
  "BDE": {
    "country": "USA",
    "latitude": 48.7284011841,
    "longitude": -94.612197876,
    "city": "Baudette"
  },
  "BDF": {
    "country": "USA",
    "latitude": 41.2308998108,
    "longitude": -89.6156997681,
    "city": "Bradford"
  },
  "BDG": {
    "country": "USA",
    "latitude": 37.58330154,
    "longitude": -109.4830017,
    "city": "Blanding"
  },
  "BDH": {
    "country": "Iran",
    "latitude": 26.531999588,
    "longitude": 54.824798584,
    "city": "Bandar Lengeh"
  },
  "BDI": {
    "country": "Seychellen",
    "latitude": -3.72472,
    "longitude": 55.205299,
    "city": "Bird Island"
  },
  "BDJ": {
    "country": "Indonesien",
    "latitude": -3.4423599243,
    "longitude": 114.7630004883,
    "city": "Banjarmasin-Borneo Island"
  },
  "BDK": {
    "country": "Elfenbeinküste",
    "latitude": 8.0172195435,
    "longitude": -2.7619400024,
    "city": "Bondoukou"
  },
  "BDL": {
    "country": "USA",
    "latitude": 41.9388999939,
    "longitude": -72.6831970215,
    "city": "Hartford"
  },
  "BDM": {
    "country": "Türkei",
    "latitude": 40.3180007935,
    "longitude": 27.9776992798,
    "city": "Bandirma"
  },
  "BDN": {
    "country": "Pakistan",
    "latitude": 24.8414993286,
    "longitude": 68.8384017944,
    "city": "Badin"
  },
  "BDO": {
    "country": "Indonesien",
    "latitude": -6.9006299973,
    "longitude": 107.5759963989,
    "city": "Bandung-Java Island"
  },
  "BDP": {
    "country": "Nepal",
    "latitude": 26.5708007812,
    "longitude": 88.0795974731,
    "city": "Bhadrapur"
  },
  "BDQ": {
    "country": "Indien",
    "latitude": 22.3362007141,
    "longitude": 73.2263031006,
    "city": "Vadodara"
  },
  "BDR": {
    "country": "USA",
    "latitude": 41.1635017395,
    "longitude": -73.1261978149,
    "city": "Bridgeport"
  },
  "BDS": {
    "country": "Italien",
    "latitude": 40.6576004028,
    "longitude": 17.9470005035,
    "city": "Brindisi"
  },
  "BDT": {
    "country": "Kongo",
    "latitude": 4.2532100677,
    "longitude": 20.9752998352
  },
  "BDU": {
    "country": "Norwegen",
    "latitude": 69.0558013916,
    "longitude": 18.5403995514,
    "city": "Malselv"
  },
  "BDV": {
    "country": "Kongo",
    "latitude": -7.0669999123,
    "longitude": 29.783000946,
    "city": "Moba"
  },
  "BDW": {
    "country": "Australien",
    "latitude": -17.286699295,
    "longitude": 127.462997437
  },
  "BDX": {
    "country": "USA",
    "latitude": 45.47249985,
    "longitude": -105.4540024,
    "city": "Broadus"
  },
  "BDY": {
    "country": "USA",
    "latitude": 43.08649826,
    "longitude": -124.4079971,
    "city": "Bandon"
  },
  "BDZ": {
    "country": "Papua-Neuguinea",
    "latitude": -6.3472222222,
    "longitude": 146.942222222
  },
  "BEB": {
    "country": "Vereinigtes Königreich",
    "latitude": 57.481098175,
    "longitude": -7.3627800941,
    "city": "Balivanich"
  },
  "BEC": {
    "country": "USA",
    "latitude": 37.6944999695,
    "longitude": -97.2149963379,
    "city": "Wichita"
  },
  "BED": {
    "country": "USA",
    "latitude": 42.47000122,
    "longitude": -71.28900146,
    "city": "Bedford"
  },
  "BEF": {
    "country": "Nicaragua",
    "latitude": 11.9910001755,
    "longitude": -83.7741012573,
    "city": "Bluefileds"
  },
  "BEG": {
    "country": "Serbien",
    "latitude": 44.8184013367,
    "longitude": 20.3090991974,
    "city": "Belgrad"
  },
  "BEH": {
    "country": "USA",
    "latitude": 42.1286010742,
    "longitude": -86.4284973145,
    "city": "Benton Harbor"
  },
  "BEI": {
    "country": "Äthiopien",
    "latitude": 9.3863897324,
    "longitude": 34.521900177,
    "city": "Beica"
  },
  "BEJ": {
    "country": "Indonesien",
    "latitude": 2.1554999352,
    "longitude": 117.431999207,
    "city": "Tanjung Redep-Borneo Island"
  },
  "BEK": {
    "country": "Indien",
    "latitude": 28.4221000671,
    "longitude": 79.4507980347
  },
  "BEL": {
    "country": "Brasilien",
    "latitude": -1.3792500496,
    "longitude": -48.4762992859,
    "city": "Belem"
  },
  "BEM": {
    "country": "Marokko",
    "latitude": 32.4000015259,
    "longitude": -6.3333301544
  },
  "BEN": {
    "country": "Libyen",
    "latitude": 32.0968017578,
    "longitude": 20.2695007324,
    "city": "Benghazi"
  },
  "BEO": {
    "country": "Australien",
    "latitude": -33.0666999817,
    "longitude": 151.6479949951
  },
  "BEP": {
    "country": "Indien",
    "latitude": 15.1627998352,
    "longitude": 76.8827972412,
    "city": "Bellary"
  },
  "BEQ": {
    "country": "Vereinigtes Königreich",
    "latitude": 52.3426017761,
    "longitude": 0.7729390264,
    "city": "Thetford"
  },
  "BER": {
    "country": "Deutschland",
    "latitude": 52.366667,
    "longitude": 13.503333,
    "city": "Berlin"
  },
  "BES": {
    "country": "Frankreich",
    "latitude": 48.4478988647,
    "longitude": -4.4185400009,
    "city": "Brest/Guipavas"
  },
  "BET": {
    "country": "USA",
    "latitude": 60.77980042,
    "longitude": -161.8379974,
    "city": "Bethel"
  },
  "BEU": {
    "country": "Australien",
    "latitude": -24.3460998535,
    "longitude": 139.4600067139
  },
  "BEV": {
    "country": "Israel",
    "latitude": 31.2870006561,
    "longitude": 34.7229995728,
    "city": "Beersheva"
  },
  "BEW": {
    "country": "Mosambik",
    "latitude": -19.7964000702,
    "longitude": 34.9076004028,
    "city": "Beira"
  },
  "BEX": {
    "country": "Vereinigtes Königreich",
    "latitude": 51.6164016724,
    "longitude": -1.0958299637,
    "city": "Benson"
  },
  "BEY": {
    "country": "Libanon",
    "latitude": 33.8208999634,
    "longitude": 35.4883995056,
    "city": "Beirut"
  },
  "BEZ": {
    "country": "Kiribati",
    "latitude": -1.3547199965,
    "longitude": 176.0070037842,
    "city": "Beru"
  },
  "BFA": {
    "country": "Paraguay",
    "latitude": -20.2245998383,
    "longitude": -58.1791992188,
    "city": "Bahia Negra"
  },
  "BFD": {
    "country": "USA",
    "latitude": 41.8031005859,
    "longitude": -78.6400985718,
    "city": "Bradford"
  },
  "BFE": {
    "country": "Deutschland",
    "latitude": 51.9647216797,
    "longitude": 8.5444440842,
    "city": "Bielefeld"
  },
  "BFF": {
    "country": "USA",
    "latitude": 41.87400055,
    "longitude": -103.5960007,
    "city": "Scottsbluff"
  },
  "BFG": {
    "country": "USA",
    "latitude": 37.54579926,
    "longitude": -110.7129974,
    "city": "Glen Canyon Natl Rec Area"
  },
  "BFH": {
    "country": "Brasilien",
    "latitude": -25.4050998688,
    "longitude": -49.2319984436,
    "city": "Curitiba"
  },
  "BFI": {
    "country": "USA",
    "latitude": 47.5299987793,
    "longitude": -122.3020019531,
    "city": "Seattle"
  },
  "BFJ": {
    "country": "Fidschi",
    "latitude": -17.5350555556,
    "longitude": 177.680916667
  },
  "BFK": {
    "country": "USA",
    "latitude": 39.7016983032,
    "longitude": -104.751998901,
    "city": "Aurora"
  },
  "BFL": {
    "country": "USA",
    "latitude": 35.43360138,
    "longitude": -119.0569992,
    "city": "Bakersfield"
  },
  "BFM": {
    "country": "USA",
    "latitude": 30.6268005371,
    "longitude": -88.0680999756,
    "city": "Mobile"
  },
  "BFN": {
    "country": "Südafrika",
    "latitude": -29.0926990509,
    "longitude": 26.302400589,
    "city": "Bloemfontain"
  },
  "BFO": {
    "country": "Simbabwe",
    "latitude": -21.0081005096,
    "longitude": 31.5785999298,
    "city": "Chiredzi"
  },
  "BFP": {
    "country": "USA",
    "latitude": 40.7724990845,
    "longitude": -80.3914031982,
    "city": "Beaver Falls"
  },
  "BFR": {
    "country": "USA",
    "latitude": 38.84000015,
    "longitude": -86.44539642,
    "city": "Bedford"
  },
  "BFS": {
    "country": "Vereinigtes Königreich",
    "latitude": 54.6575012207,
    "longitude": -6.2158298492,
    "city": "Belfast"
  },
  "BFT": {
    "country": "USA",
    "latitude": 32.4122009277,
    "longitude": -80.6343994141,
    "city": "Beaufort"
  },
  "BFU": {
    "country": "China",
    "latitude": 32.8477333333,
    "longitude": 117.320244444,
    "city": "Bengbu"
  },
  "BFV": {
    "country": "Thailand",
    "latitude": 15.2294998169,
    "longitude": 103.2529983521
  },
  "BFW": {
    "country": "Algerien",
    "latitude": 35.1717987061,
    "longitude": -0.5932750106
  },
  "BFX": {
    "country": "Kamerun",
    "latitude": 5.5369200707,
    "longitude": 10.3545999527,
    "city": "Bafoussam"
  },
  "BGA": {
    "country": "Kolumbien",
    "latitude": 7.1265,
    "longitude": -73.1848,
    "city": "Bucaramanga"
  },
  "BGB": {
    "country": "Gabun",
    "latitude": -0.1000000015,
    "longitude": 11.9499998093,
    "city": "Booue"
  },
  "BGC": {
    "country": "Portugal",
    "latitude": 41.85779953,
    "longitude": -6.7071299553
  },
  "BGD": {
    "country": "USA",
    "latitude": 35.7009010315,
    "longitude": -101.393997192,
    "city": "Borger"
  },
  "BGE": {
    "country": "USA",
    "latitude": 30.9715004,
    "longitude": -84.63739777,
    "city": "Bainbridge"
  },
  "BGF": {
    "country": "Zentralafrikanische Republik",
    "latitude": 4.3984799385,
    "longitude": 18.5188007355,
    "city": "Bangui"
  },
  "BGH": {
    "country": "Mauretanien",
    "latitude": 16.6333141327,
    "longitude": -14.2000007629,
    "city": "Boghe"
  },
  "BGI": {
    "country": "Barbados",
    "latitude": 13.0746002197,
    "longitude": -59.4925003052,
    "city": "Bridgetown"
  },
  "BGJ": {
    "country": "Island",
    "latitude": 65.5164031982,
    "longitude": -13.8050003052,
    "city": "Borgarfjordur eystri"
  },
  "BGL": {
    "country": "Nepal",
    "latitude": 28.2127990723,
    "longitude": 83.6662979126,
    "city": "Baglung"
  },
  "BGM": {
    "country": "USA",
    "latitude": 42.20869827,
    "longitude": -75.97979736,
    "city": "Binghamton"
  },
  "BGN": {
    "country": "Russland",
    "latitude": 68.556944,
    "longitude": 146.234722,
    "city": "Belaya Gora"
  },
  "BGO": {
    "country": "Norwegen",
    "latitude": 60.2933998108,
    "longitude": 5.2181401253,
    "city": "Bergen"
  },
  "BGQ": {
    "country": "USA",
    "latitude": 61.5360984802,
    "longitude": -149.8139953613,
    "city": "Big Lake"
  },
  "BGR": {
    "country": "USA",
    "latitude": 44.8073997498,
    "longitude": -68.8281021118,
    "city": "Bangor"
  },
  "BGS": {
    "country": "USA",
    "latitude": 32.21260071,
    "longitude": -101.5220032,
    "city": "Big Spring"
  },
  "BGT": {
    "country": "USA",
    "latitude": 34.5959014893,
    "longitude": -113.1699981689,
    "city": "Bagdad"
  },
  "BGU": {
    "country": "Zentralafrikanische Republik",
    "latitude": 4.7849998474,
    "longitude": 22.7810001373,
    "city": "Bangassou"
  },
  "BGV": {
    "country": "Brasilien",
    "latitude": -29.1483325958,
    "longitude": -51.5363883972,
    "city": "Bento Goncalves"
  },
  "BGW": {
    "country": "Irak",
    "latitude": 33.2625007629,
    "longitude": 44.2346000671,
    "city": "Baghdad"
  },
  "BGX": {
    "country": "Brasilien",
    "latitude": -31.390499115,
    "longitude": -54.1122016907,
    "city": "Bage"
  },
  "BGY": {
    "country": "Italien",
    "latitude": 45.6739006042,
    "longitude": 9.7041702271,
    "city": "Bergamo"
  },
  "BGZ": {
    "country": "Portugal",
    "latitude": 41.5871009827,
    "longitude": -8.445139885,
    "city": "Braga"
  },
  "BHA": {
    "country": "Ecuador",
    "latitude": -0.6081110239,
    "longitude": -80.4027023315,
    "city": "Bahia de Caraquez"
  },
  "BHB": {
    "country": "USA",
    "latitude": 44.45000076,
    "longitude": -68.3615036,
    "city": "Bar Harbor"
  },
  "BHD": {
    "country": "Vereinigtes Königreich",
    "latitude": 54.6180992126,
    "longitude": -5.8724999428,
    "city": "Belfast"
  },
  "BHE": {
    "country": "Neuseeland",
    "latitude": -41.5182991028,
    "longitude": 173.8699951172,
    "city": "Blenheim"
  },
  "BHF": {
    "country": "Kolumbien",
    "latitude": 6.691944,
    "longitude": -77.477222,
    "city": "Bahia Solano"
  },
  "BHG": {
    "country": "Honduras",
    "latitude": 15.7630996704,
    "longitude": -84.5436019897,
    "city": "Brus Laguna"
  },
  "BHH": {
    "country": "Saudi Arabien",
    "latitude": 19.9843997955,
    "longitude": 42.6208992004
  },
  "BHI": {
    "country": "Argentinien",
    "latitude": -38.725,
    "longitude": -62.1693,
    "city": "Bahia Blanca"
  },
  "BHJ": {
    "country": "Indien",
    "latitude": 23.2877998352,
    "longitude": 69.6701965332,
    "city": "Bhuj"
  },
  "BHK": {
    "country": "Usbekistan",
    "latitude": 39.7750015259,
    "longitude": 64.4832992554,
    "city": "Bukhara"
  },
  "BHM": {
    "country": "USA",
    "latitude": 33.56290054,
    "longitude": -86.75350189,
    "city": "Birmingham"
  },
  "BHN": {
    "country": "Jemen",
    "latitude": 14.781999588,
    "longitude": 45.7201004028
  },
  "BHO": {
    "country": "Indien",
    "latitude": 23.2875003815,
    "longitude": 77.3374023438,
    "city": "Bhopal"
  },
  "BHP": {
    "country": "Nepal",
    "latitude": 27.1473999023,
    "longitude": 87.0507965088,
    "city": "Bhojpur"
  },
  "BHQ": {
    "country": "Australien",
    "latitude": -32.0013999939,
    "longitude": 141.472000122,
    "city": "Broken Hill"
  },
  "BHR": {
    "country": "Nepal",
    "latitude": 27.6781005859,
    "longitude": 84.429397583,
    "city": "Bharatpur"
  },
  "BHS": {
    "country": "Australien",
    "latitude": -33.4094009399,
    "longitude": 149.651992798,
    "city": "Bathurst"
  },
  "BHU": {
    "country": "Indien",
    "latitude": 21.752199173,
    "longitude": 72.1852035522,
    "city": "Bhavnagar"
  },
  "BHV": {
    "country": "Pakistan",
    "latitude": 29.3481006622,
    "longitude": 71.7180023193,
    "city": "Bahawalpur"
  },
  "BHW": {
    "country": "Pakistan",
    "latitude": 32.056098938,
    "longitude": 72.9484024048,
    "city": "Bhagatanwala"
  },
  "BHX": {
    "country": "Vereinigtes Königreich",
    "latitude": 52.4538993835,
    "longitude": -1.7480299473,
    "city": "Birmingham"
  },
  "BHY": {
    "country": "China",
    "latitude": 21.5394001007,
    "longitude": 109.2939987183,
    "city": "Beihai"
  },
  "BIA": {
    "country": "Frankreich",
    "latitude": 42.5527000427,
    "longitude": 9.4837303162,
    "city": "Bastia/Poretta"
  },
  "BIB": {
    "country": "Somalia",
    "latitude": 3.1022200584,
    "longitude": 43.6286010742,
    "city": "Baidoa"
  },
  "BID": {
    "country": "USA",
    "latitude": 41.1680984497,
    "longitude": -71.577796936,
    "city": "Block Island"
  },
  "BIE": {
    "country": "USA",
    "latitude": 40.3013000488,
    "longitude": -96.7540969849,
    "city": "Beatrice"
  },
  "BIF": {
    "country": "USA",
    "latitude": 31.84950066,
    "longitude": -106.3799973,
    "city": "Fort Bliss/El Paso"
  },
  "BIG": {
    "country": "USA",
    "latitude": 63.9944992065,
    "longitude": -145.722000122,
    "city": "Delta Junction Ft Greely"
  },
  "BIH": {
    "country": "USA",
    "latitude": 37.3731002808,
    "longitude": -118.363998413,
    "city": "Bishop"
  },
  "BIK": {
    "country": "Indonesien",
    "latitude": -1.1900199652,
    "longitude": 136.108001709,
    "city": "Biak-Supiori Island"
  },
  "BIL": {
    "country": "USA",
    "latitude": 45.8077011108,
    "longitude": -108.5429992676,
    "city": "Billings"
  },
  "BIM": {
    "country": "Bahamas",
    "latitude": 25.6998996735,
    "longitude": -79.2647018433,
    "city": "South Bimini"
  },
  "BIN": {
    "country": "Afghanistan",
    "latitude": 34.8170013428,
    "longitude": 67.8170013428,
    "city": "Bamiyan"
  },
  "BIO": {
    "country": "Spanien",
    "latitude": 43.3011016846,
    "longitude": -2.9106099606,
    "city": "Bilbao"
  },
  "BIP": {
    "country": "Australien",
    "latitude": -16.8808002472,
    "longitude": 143.479003906
  },
  "BIQ": {
    "country": "Frankreich",
    "latitude": 43.4683990479,
    "longitude": -1.5233199596,
    "city": "Biarritz/Anglet/Bayonne"
  },
  "BIR": {
    "country": "Nepal",
    "latitude": 26.4815006256,
    "longitude": 87.263999939,
    "city": "Biratnagar"
  },
  "BIS": {
    "country": "USA",
    "latitude": 46.7727012634,
    "longitude": -100.7460021973,
    "city": "Bismarck"
  },
  "BIT": {
    "country": "Nepal",
    "latitude": 29.4652996063,
    "longitude": 80.5492019653,
    "city": "Baitadi"
  },
  "BIU": {
    "country": "Island",
    "latitude": 65.6412963867,
    "longitude": -23.5461997986,
    "city": "Bildudalur"
  },
  "BIV": {
    "country": "Zentralafrikanische Republik",
    "latitude": 6.527780056,
    "longitude": 21.9894008636,
    "city": "Bria"
  },
  "BIW": {
    "country": "Australien",
    "latitude": -19.5666999817,
    "longitude": 127.666999817
  },
  "BIX": {
    "country": "USA",
    "latitude": 30.4104003906,
    "longitude": -88.9244003296,
    "city": "Biloxi"
  },
  "BIY": {
    "country": "Südafrika",
    "latitude": -32.8970985413,
    "longitude": 27.2791004181,
    "city": "Bisho"
  },
  "BJA": {
    "country": "Algerien",
    "latitude": 36.7120018005,
    "longitude": 5.069920063,
    "city": "Bejaia"
  },
  "BJB": {
    "country": "Iran",
    "latitude": 37.4930000305,
    "longitude": 57.3082008362,
    "city": "Bojnord"
  },
  "BJC": {
    "country": "USA",
    "latitude": 39.90879822,
    "longitude": -105.1169968,
    "city": "Denver"
  },
  "BJD": {
    "country": "Island",
    "latitude": 66.0218963623,
    "longitude": -14.8243999481,
    "city": "Bakkafjordur"
  },
  "BJF": {
    "country": "Norwegen",
    "latitude": 70.6005020142,
    "longitude": 29.691400528,
    "city": "Batsfjord"
  },
  "BJH": {
    "country": "Nepal",
    "latitude": 29.5389995575,
    "longitude": 81.1854019165,
    "city": "Bajhang"
  },
  "BJI": {
    "country": "USA",
    "latitude": 47.50939941,
    "longitude": -94.93370056,
    "city": "Bemidji"
  },
  "BJJ": {
    "country": "USA",
    "latitude": 40.8748016357,
    "longitude": -81.8882980347,
    "city": "Wooster"
  },
  "BJK": {
    "country": "Indonesien",
    "latitude": -6.0661997795,
    "longitude": 134.2740020752,
    "city": "Maikoor Island"
  },
  "BJL": {
    "country": "Gambia",
    "latitude": 13.3380002975,
    "longitude": -16.6522006989,
    "city": "Banjul"
  },
  "BJM": {
    "country": "Burundi",
    "latitude": -3.3240199089,
    "longitude": 29.3185005188,
    "city": "Bujumbura"
  },
  "BJO": {
    "country": "Bolivien",
    "latitude": -22.7733001709,
    "longitude": -64.3128967285,
    "city": "Bermejo"
  },
  "BJP": {
    "country": "Brasilien",
    "latitude": -22.979167,
    "longitude": -46.5375,
    "city": "Braganca Paulista"
  },
  "BJR": {
    "country": "Äthiopien",
    "latitude": 11.6080999374,
    "longitude": 37.3216018677,
    "city": "Bahir Dar"
  },
  "BJU": {
    "country": "Nepal",
    "latitude": 29.5020008087,
    "longitude": 81.6689987183,
    "city": "Bajura"
  },
  "BJV": {
    "country": "Türkei",
    "latitude": 37.2505989075,
    "longitude": 27.6643009186,
    "city": "Bodrum"
  },
  "BJW": {
    "country": "Indonesien",
    "latitude": -8.808139801,
    "longitude": 120.9960021973,
    "city": "Bajawa-Flores Island"
  },
  "BJX": {
    "country": "Mexiko",
    "latitude": 20.9934997559,
    "longitude": -101.481002808,
    "city": "Silao"
  },
  "BJY": {
    "country": "Serbien",
    "latitude": 44.935299,
    "longitude": 20.2575,
    "city": "Batajnica"
  },
  "BJZ": {
    "country": "Spanien",
    "latitude": 38.8913002014,
    "longitude": -6.8213300705,
    "city": "Badajoz"
  },
  "BKA": {
    "country": "Russland",
    "latitude": 55.6171989441,
    "longitude": 38.0600013733,
    "city": "Moscow"
  },
  "BKB": {
    "country": "Indien",
    "latitude": 28.0706005096,
    "longitude": 73.2071990967,
    "city": "Bikaner"
  },
  "BKC": {
    "country": "USA",
    "latitude": 65.9815979004,
    "longitude": -161.149002075,
    "city": "Buckland"
  },
  "BKD": {
    "country": "USA",
    "latitude": 32.71900177,
    "longitude": -98.8909988403,
    "city": "Breckenridge"
  },
  "BKE": {
    "country": "USA",
    "latitude": 44.8372993469,
    "longitude": -117.808998108,
    "city": "Baker City"
  },
  "BKG": {
    "country": "USA",
    "latitude": 36.532082,
    "longitude": -93.200544,
    "city": "Branson"
  },
  "BKH": {
    "country": "USA",
    "latitude": 22.0228004456,
    "longitude": -159.785003662,
    "city": "Kekaha"
  },
  "BKI": {
    "country": "Malaysia",
    "latitude": 5.937210083,
    "longitude": 116.0510025024,
    "city": "Kota Kinabalu"
  },
  "BKJ": {
    "country": "Guinea",
    "latitude": 10.9658002853,
    "longitude": -14.2811002731,
    "city": "Boke"
  },
  "BKK": {
    "country": "Thailand",
    "latitude": 13.6810998917,
    "longitude": 100.7470016479,
    "city": "Bangkok"
  },
  "BKL": {
    "country": "USA",
    "latitude": 41.5175018311,
    "longitude": -81.6832962036,
    "city": "Cleveland"
  },
  "BKM": {
    "country": "Malaysia",
    "latitude": 3.9739999771,
    "longitude": 115.6179962158,
    "city": "Bakalalan"
  },
  "BKO": {
    "country": "Mali",
    "latitude": 12.5334997177,
    "longitude": -7.9499402046,
    "city": "Senou"
  },
  "BKP": {
    "country": "Australien",
    "latitude": -20.4958333333,
    "longitude": 138.474722222
  },
  "BKQ": {
    "country": "Australien",
    "latitude": -24.4277992249,
    "longitude": 145.429000854,
    "city": "Blackall"
  },
  "BKR": {
    "country": "Tschad",
    "latitude": 12.3830003738,
    "longitude": 17.0669994354,
    "city": "Bokoro"
  },
  "BKS": {
    "country": "Indonesien",
    "latitude": -3.863699913,
    "longitude": 102.3389968872,
    "city": "Bengkulu-Sumatra Island"
  },
  "BKT": {
    "country": "USA",
    "latitude": 37.0741996765,
    "longitude": -77.9574966431,
    "city": "Blackstone"
  },
  "BKU": {
    "country": "Madagaskar",
    "latitude": -23.7329998016,
    "longitude": 44.388999939,
    "city": "Betioky"
  },
  "BKW": {
    "country": "USA",
    "latitude": 37.7873001099,
    "longitude": -81.1241989136,
    "city": "Beckley"
  },
  "BKX": {
    "country": "USA",
    "latitude": 44.3047981262,
    "longitude": -96.8169021606,
    "city": "Brookings"
  },
  "BKY": {
    "country": "Kongo",
    "latitude": -2.3089799881,
    "longitude": 28.8087997437
  },
  "BKZ": {
    "country": "Tansania",
    "latitude": -1.332,
    "longitude": 31.8212,
    "city": "Bukoba"
  },
  "BLA": {
    "country": "Venezuela",
    "latitude": 10.1070995331,
    "longitude": -64.689201355,
    "city": "Barcelona"
  },
  "BLB": {
    "country": "Panama",
    "latitude": 8.9147901535,
    "longitude": -79.5996017456,
    "city": "Panama City"
  },
  "BLC": {
    "country": "Kamerun",
    "latitude": 5.8952777778,
    "longitude": 10.0338888889,
    "city": "Bali"
  },
  "BLD": {
    "country": "USA",
    "latitude": 35.9474983215,
    "longitude": -114.861000061,
    "city": "Boulder City"
  },
  "BLE": {
    "country": "Schweden",
    "latitude": 60.422000885,
    "longitude": 15.5151996613
  },
  "BLF": {
    "country": "USA",
    "latitude": 37.2957992554,
    "longitude": -81.2077026367,
    "city": "Bluefield"
  },
  "BLG": {
    "country": "Malaysia",
    "latitude": 2.6500000954,
    "longitude": 113.766998291,
    "city": "Belaga"
  },
  "BLH": {
    "country": "USA",
    "latitude": 33.6192016602,
    "longitude": -114.717002869,
    "city": "Blythe"
  },
  "BLI": {
    "country": "USA",
    "latitude": 48.7928009033,
    "longitude": -122.5380020142,
    "city": "Bellingham"
  },
  "BLJ": {
    "country": "Algerien",
    "latitude": 35.7521018982,
    "longitude": 6.3085899353,
    "city": "Batna"
  },
  "BLK": {
    "country": "Vereinigtes Königreich",
    "latitude": 53.7717018127,
    "longitude": -3.0286099911,
    "city": "Blackpool"
  },
  "BLL": {
    "country": "Dänemark",
    "latitude": 55.7402992249,
    "longitude": 9.1517801285,
    "city": "Billund"
  },
  "BLM": {
    "country": "USA",
    "latitude": 40.18690109,
    "longitude": -74.12490082,
    "city": "Belmar/Farmingdale"
  },
  "BLN": {
    "country": "Australien",
    "latitude": -36.5518989563,
    "longitude": 146.0070037842
  },
  "BLO": {
    "country": "Island",
    "latitude": 65.6449966431,
    "longitude": -20.2875003815,
    "city": "Blonduos"
  },
  "BLP": {
    "country": "Peru",
    "latitude": -7.0605602264,
    "longitude": -76.5821990967,
    "city": "Bellavista"
  },
  "BLQ": {
    "country": "Italien",
    "latitude": 44.5354003906,
    "longitude": 11.2887001038,
    "city": "Bologna"
  },
  "BLR": {
    "country": "Indien",
    "latitude": 13.1978998184,
    "longitude": 77.7062988281,
    "city": "Bangalore"
  },
  "BLS": {
    "country": "Australien",
    "latitude": -28.0583000183,
    "longitude": 147.483001709
  },
  "BLT": {
    "country": "Australien",
    "latitude": -23.603099823,
    "longitude": 148.8070068359
  },
  "BLU": {
    "country": "USA",
    "latitude": 39.2750015259,
    "longitude": -120.709999084,
    "city": "Emigrant Gap"
  },
  "BLV": {
    "country": "USA",
    "latitude": 38.54520035,
    "longitude": -89.83519745,
    "city": "Belleville"
  },
  "BLX": {
    "country": "Italien",
    "latitude": 46.1674995422,
    "longitude": 12.2479000092,
    "city": "Belluno"
  },
  "BLY": {
    "country": "Irland",
    "latitude": 54.2228012085,
    "longitude": -10.0307998657,
    "city": "Belmullet"
  },
  "BLZ": {
    "country": "Malawi",
    "latitude": -15.6791000366,
    "longitude": 34.9739990234,
    "city": "Blantyre"
  },
  "BMA": {
    "country": "Schweden",
    "latitude": 59.3544006348,
    "longitude": 17.9416999817,
    "city": "Stockholm"
  },
  "BMB": {
    "country": "Kongo",
    "latitude": 2.1827800274,
    "longitude": 22.4817008972,
    "city": "Bumbar"
  },
  "BMC": {
    "country": "USA",
    "latitude": 41.5523986816,
    "longitude": -112.06199646,
    "city": "Brigham City"
  },
  "BMD": {
    "country": "Madagaskar",
    "latitude": -19.6867008209,
    "longitude": 44.5419006348,
    "city": "Belo sur Tsiribihina"
  },
  "BME": {
    "country": "Australien",
    "latitude": -17.9447002411,
    "longitude": 122.2320022583,
    "city": "Broome"
  },
  "BMF": {
    "country": "Zentralafrikanische Republik",
    "latitude": 5.6939997673,
    "longitude": 22.8010005951,
    "city": "Bakouma"
  },
  "BMG": {
    "country": "USA",
    "latitude": 39.1459999084,
    "longitude": -86.6166992188,
    "city": "Bloomington"
  },
  "BMI": {
    "country": "USA",
    "latitude": 40.47710037,
    "longitude": -88.91590118,
    "city": "Bloomington-Normal"
  },
  "BMJ": {
    "country": "Guyana",
    "latitude": 7.3701200485,
    "longitude": -60.4879989624,
    "city": "Baramita"
  },
  "BMK": {
    "country": "Deutschland",
    "latitude": 53.5963897705,
    "longitude": 6.7091670036,
    "city": "Borkum"
  },
  "BML": {
    "country": "USA",
    "latitude": 44.57540131,
    "longitude": -71.17590332,
    "city": "Berlin"
  },
  "BMM": {
    "country": "Gabun",
    "latitude": 2.0756399632,
    "longitude": 11.4932003021,
    "city": "Bitam"
  },
  "BMN": {
    "country": "Irak",
    "latitude": 37.0988006592,
    "longitude": 43.2666015625,
    "city": "Bamarni"
  },
  "BMO": {
    "country": "Myanmar",
    "latitude": 24.2689990997,
    "longitude": 97.2462005615,
    "city": "Banmaw"
  },
  "BMP": {
    "country": "Australien",
    "latitude": -20.8033008575,
    "longitude": 149.2700042725
  },
  "BMR": {
    "country": "Deutschland",
    "latitude": 53.7247238159,
    "longitude": 7.3733329773,
    "city": "Baltrum"
  },
  "BMS": {
    "country": "Brasilien",
    "latitude": -14.255399704,
    "longitude": -41.8175010681,
    "city": "Brumado"
  },
  "BMT": {
    "country": "USA",
    "latitude": 30.0706996918,
    "longitude": -94.2157974243,
    "city": "Beaumont"
  },
  "BMU": {
    "country": "Indonesien",
    "latitude": -8.5396499634,
    "longitude": 118.68699646,
    "city": "Bima-Sumbawa Island"
  },
  "BMV": {
    "country": "Vietnam",
    "latitude": 12.668299675,
    "longitude": 108.120002747,
    "city": "Buon Ma Thuot"
  },
  "BMW": {
    "country": "Algerien",
    "latitude": 21.375,
    "longitude": 0.9238889813,
    "city": "Bordj Badji Mokhtar"
  },
  "BMX": {
    "country": "USA",
    "latitude": 59.3611984253,
    "longitude": -155.259002686,
    "city": "Big Mountain"
  },
  "BMY": {
    "country": "Neukaledonien",
    "latitude": -19.7206001282,
    "longitude": 163.6609954834,
    "city": "Waala"
  },
  "BNA": {
    "country": "USA",
    "latitude": 36.1245002747,
    "longitude": -86.6781997681,
    "city": "Nashville"
  },
  "BNB": {
    "country": "Kongo",
    "latitude": -0.2169999927,
    "longitude": 20.8500003815,
    "city": "Boende"
  },
  "BNC": {
    "country": "Kongo",
    "latitude": 0.5749999881,
    "longitude": 29.4738998413,
    "city": "Beni"
  },
  "BND": {
    "country": "Iran",
    "latitude": 27.2182998657,
    "longitude": 56.3777999878,
    "city": "Bandar Abbas"
  },
  "BNE": {
    "country": "Australien",
    "latitude": -27.3841991425,
    "longitude": 153.1170043945,
    "city": "Brisbane"
  },
  "BNG": {
    "country": "USA",
    "latitude": 33.9230995178,
    "longitude": -116.850997925,
    "city": "Banning"
  },
  "BNI": {
    "country": "Nigeria",
    "latitude": 6.3169798851,
    "longitude": 5.5995001793,
    "city": "Benin"
  },
  "BNK": {
    "country": "Australien",
    "latitude": -28.8339004517,
    "longitude": 153.56199646,
    "city": "Ballina"
  },
  "BNL": {
    "country": "USA",
    "latitude": 33.25780106,
    "longitude": -81.38829803,
    "city": "Barnwell"
  },
  "BNN": {
    "country": "Norwegen",
    "latitude": 65.4610977173,
    "longitude": 12.217499733,
    "city": "Bronnoy"
  },
  "BNO": {
    "country": "USA",
    "latitude": 43.5918998718,
    "longitude": -118.955001831,
    "city": "Burns"
  },
  "BNP": {
    "country": "Pakistan",
    "latitude": 32.9729003906,
    "longitude": 70.5279006958,
    "city": "Bannu"
  },
  "BNR": {
    "country": "Burkina Faso",
    "latitude": 10.6829996109,
    "longitude": -4.7170000076,
    "city": "Banfora"
  },
  "BNS": {
    "country": "Venezuela",
    "latitude": 8.6195697784,
    "longitude": -70.2208023071,
    "city": "Barinas"
  },
  "BNU": {
    "country": "Brasilien",
    "latitude": -26.8306007385,
    "longitude": -49.0903015137,
    "city": "Blumenau"
  },
  "BNW": {
    "country": "USA",
    "latitude": 42.0495986938,
    "longitude": -93.8476028442,
    "city": "Boone"
  },
  "BNX": {
    "country": "Bosnien und Herzegowina",
    "latitude": 44.9413986206,
    "longitude": 17.2975006104,
    "city": "Banja Luka"
  },
  "BNY": {
    "country": "Salomonen",
    "latitude": -11.3022222222,
    "longitude": 159.798333333,
    "city": "Anua"
  },
  "BOA": {
    "country": "Kongo",
    "latitude": -5.8540000916,
    "longitude": 13.0640001297,
    "city": "Boma"
  },
  "BOB": {
    "country": "Französisch-Polynesien",
    "latitude": -16.4444007874,
    "longitude": -151.7510070801,
    "city": "Motu Mute"
  },
  "BOC": {
    "country": "Panama",
    "latitude": 9.3408498764,
    "longitude": -82.2508010864,
    "city": "Isla Colon"
  },
  "BOD": {
    "country": "Frankreich",
    "latitude": 44.8283004761,
    "longitude": -0.7155560255,
    "city": "Bordeaux/Merignac"
  },
  "BOE": {
    "country": "Demokratische Republik Kongo",
    "latitude": -1.0329999924,
    "longitude": 15.3830003738,
    "city": "Boundji"
  },
  "BOG": {
    "country": "Kolumbien",
    "latitude": 4.70159,
    "longitude": -74.1469,
    "city": "Bogota"
  },
  "BOH": {
    "country": "Vereinigtes Königreich",
    "latitude": 50.7799987793,
    "longitude": -1.8424999714,
    "city": "Bournemouth"
  },
  "BOI": {
    "country": "USA",
    "latitude": 43.56439972,
    "longitude": -116.2229996,
    "city": "Boise"
  },
  "BOJ": {
    "country": "Bulgarien",
    "latitude": 42.5695991516,
    "longitude": 27.5151996613,
    "city": "Burgas"
  },
  "BOL": {
    "country": "Vereinigtes Königreich",
    "latitude": 55.0602989197,
    "longitude": -7.0202798843,
    "city": "Ballykelly"
  },
  "BOM": {
    "country": "Indien",
    "latitude": 19.0886993408,
    "longitude": 72.8678970337,
    "city": "Mumbai"
  },
  "BON": {
    "country": "Bonaire",
    "latitude": 12.1309995651,
    "longitude": -68.2685012817,
    "city": "Kralendijk"
  },
  "BOO": {
    "country": "Norwegen",
    "latitude": 67.269203186,
    "longitude": 14.3653001785,
    "city": "Bodo"
  },
  "BOP": {
    "country": "Zentralafrikanische Republik",
    "latitude": 5.9580001831,
    "longitude": 15.6370000839,
    "city": "Bouar"
  },
  "BOR": {
    "country": "Frankreich",
    "latitude": 47.6556015015,
    "longitude": 7.0108299255,
    "city": "Belfort"
  },
  "BOS": {
    "country": "USA",
    "latitude": 42.36429977,
    "longitude": -71.00520325,
    "city": "Boston"
  },
  "BOU": {
    "country": "Frankreich",
    "latitude": 47.0581016541,
    "longitude": 2.3702800274,
    "city": "Bourges"
  },
  "BOW": {
    "country": "USA",
    "latitude": 27.9433994293,
    "longitude": -81.7834014893,
    "city": "Bartow"
  },
  "BOX": {
    "country": "Australien",
    "latitude": -16.0753002167,
    "longitude": 136.3020019531
  },
  "BOY": {
    "country": "Burkina Faso",
    "latitude": 11.1600999832,
    "longitude": -4.3309698105,
    "city": "Bobo Dioulasso"
  },
  "BOZ": {
    "country": "Zentralafrikanische Republik",
    "latitude": 6.3441700935,
    "longitude": 16.3218994141,
    "city": "Bozoum"
  },
  "BPC": {
    "country": "Kamerun",
    "latitude": 6.0392398834,
    "longitude": 10.1225996017,
    "city": "Bamenda"
  },
  "BPF": {
    "country": "Salomonen",
    "latitude": -8.5620277778,
    "longitude": 158.119305556,
    "city": "Batuna Mission Station"
  },
  "BPG": {
    "country": "Brasilien",
    "latitude": -15.8613004684,
    "longitude": -52.3889007568,
    "city": "Barra Do Garcas"
  },
  "BPH": {
    "country": "Philippinen",
    "latitude": 8.1959495544,
    "longitude": 126.3219985962
  },
  "BPI": {
    "country": "USA",
    "latitude": 42.58509827,
    "longitude": -110.1110001,
    "city": "Big Piney"
  },
  "BPL": {
    "country": "China",
    "latitude": 44.895,
    "longitude": 82.3,
    "city": "Bole"
  },
  "BPM": {
    "country": "Indien",
    "latitude": 17.4531002045,
    "longitude": 78.4675979614,
    "city": "Hyderabad"
  },
  "BPN": {
    "country": "Indonesien",
    "latitude": -1.2682700157,
    "longitude": 116.8939971924,
    "city": "Balikpapan-Borneo Island"
  },
  "BPS": {
    "country": "Brasilien",
    "latitude": -16.4386005402,
    "longitude": -39.0808982849,
    "city": "Porto Seguro"
  },
  "BPT": {
    "country": "USA",
    "latitude": 29.950799942,
    "longitude": -94.0206985474,
    "city": "Beaumont/Port Arthur"
  },
  "BPX": {
    "country": "China",
    "latitude": 30.5536003113,
    "longitude": 97.1082992554,
    "city": "Bangda"
  },
  "BPY": {
    "country": "Madagaskar",
    "latitude": -16.7445302965,
    "longitude": 44.4824838638
  },
  "BQA": {
    "country": "Philippinen",
    "latitude": 15.7298002243,
    "longitude": 121.5,
    "city": "Baler"
  },
  "BQB": {
    "country": "Australien",
    "latitude": -33.6884231567,
    "longitude": 115.401596069,
    "city": "Busselton"
  },
  "BQD": {
    "country": "Island",
    "latitude": 65.075302124,
    "longitude": -21.8003005981,
    "city": "Budardalur"
  },
  "BQE": {
    "country": "Guinea-Bissau",
    "latitude": 11.2973556519,
    "longitude": -15.8380794525,
    "city": "Bubaque"
  },
  "BQG": {
    "country": "Russland",
    "latitude": 52.38,
    "longitude": 140.448,
    "city": "Bogorodskoye"
  },
  "BQH": {
    "country": "Vereinigtes Königreich",
    "latitude": 51.3307991028,
    "longitude": 0.0324999988,
    "city": "London"
  },
  "BQK": {
    "country": "USA",
    "latitude": 31.2588005066,
    "longitude": -81.4664993286,
    "city": "Brunswick"
  },
  "BQL": {
    "country": "Australien",
    "latitude": -22.9132995605,
    "longitude": 139.8999938965
  },
  "BQN": {
    "country": "Puerto Rico",
    "latitude": 18.4948997498,
    "longitude": -67.1294021606,
    "city": "Aguadilla"
  },